{"type":"FeatureCollection", "features":[
{"type":"Feature","geometry":{"type":"Point","coordinates":[30.8801,-30.05127,0]},"properties":{"name":"Amanzimtoti Branch Court","description":"","OBJECTID":"281","PROVINCE":"KZN","OFFICIAL_N":"Amanzimtoti","FOMERLY_KN":"","ALSO_KNOWN":"","COURT_TYPE":"Branch Court","COURT_TY_1":"BC","SMALLCLAIM":"No","EQUALITY_C":"No","STREET_ADR":"Cnr Nelson &amp; Adams Road, Amanzimtoti","TOWN":"Amanzimtoti","MUNICIPALI":"eThekwini Metropolitan Municipality","DISTRICT":"eThekwini","GPS_EAST":"30.8801","GPS_SOUTH":"-30.0513"}},
{"type":"Feature","geometry":{"type":"Point","coordinates":[31.08322,-28.37697,0]},"properties":{"name":"Babanango Magistrate Court","description":"","OBJECTID":"337","PROVINCE":"KZN","OFFICIAL_N":"Babanango","FOMERLY_KN":"","ALSO_KNOWN":"","COURT_TYPE":"Magistrate Court","COURT_TY_1":"MC","SMALLCLAIM":"Yes","EQUALITY_C":"Yes","STREET_ADR":"Lot 59, c/o Justice &amp; Main street","TOWN":"Babanango","MUNICIPALI":"Ulundi Local Municipality","DISTRICT":"Zululand","GPS_EAST":"31.0832","GPS_SOUTH":"-28.377"}},
{"type":"Feature","geometry":{"type":"Point","coordinates":[29.35448,-28.73194,0]},"properties":{"name":"Bergville Magistrate Court","description":"","OBJECTID":"330","PROVINCE":"KZN","OFFICIAL_N":"Bergville","FOMERLY_KN":"","ALSO_KNOWN":"","COURT_TYPE":"Magistrate Court","COURT_TY_1":"MC","SMALLCLAIM":"Yes","EQUALITY_C":"Yes","STREET_ADR":"Sharrat Street","TOWN":"Bergville","MUNICIPALI":"Okhahlamba Local Municipality","DISTRICT":"uThukela","GPS_EAST":"29.3545","GPS_SOUTH":"-28.7319"}},
{"type":"Feature","geometry":{"type":"Point","coordinates":[30.54196,-29.72945,0]},"properties":{"name":"Camperdown Magistrate Court","description":"","OBJECTID":"306","PROVINCE":"KZN","OFFICIAL_N":"Camperdown","FOMERLY_KN":"","ALSO_KNOWN":"","COURT_TYPE":"Magistrate Court","COURT_TY_1":"MC","SMALLCLAIM":"Yes","EQUALITY_C":"Yes","STREET_ADR":"10 Bishop Street,","TOWN":"Camperdown","MUNICIPALI":"Mkhambathini Local Municipality","DISTRICT":"uMgungundlovu","GPS_EAST":"30.542","GPS_SOUTH":"-29.7294"}},
{"type":"Feature","geometry":{"type":"Point","coordinates":[29.87249,-27.41492,0]},"properties":{"name":"Charlestown Periodical Court","description":"","OBJECTID":"325","PROVINCE":"KZN","OFFICIAL_N":"Charlestown","FOMERLY_KN":"","ALSO_KNOWN":"","COURT_TYPE":"Periodical Court","COURT_TY_1":"PC","SMALLCLAIM":"No","EQUALITY_C":"No","STREET_ADR":"Hollard Street,","TOWN":"Charlestown","MUNICIPALI":"Newcastle Local Municipality","DISTRICT":"Amajuba","GPS_EAST":"29.8725","GPS_SOUTH":"-27.4149"}},
{"type":"Feature","geometry":{"type":"Point","coordinates":[30.88408,-29.91076,0]},"properties":{"name":"Chatsworth Magistrate Court","description":"","OBJECTID":"282","PROVINCE":"KZN","OFFICIAL_N":"Chatsworth","FOMERLY_KN":"","ALSO_KNOWN":"","COURT_TYPE":"Magistrate Court","COURT_TY_1":"MC","SMALLCLAIM":"Yes","EQUALITY_C":"Yes","STREET_ADR":"1 Justice Street, Unit 5,","TOWN":"Chatsworth","MUNICIPALI":"eThekwini Metropolitan Municipality","DISTRICT":"eThekwini","GPS_EAST":"30.8841","GPS_SOUTH":"-29.9108"}},
{"type":"Feature","geometry":{"type":"Point","coordinates":[29.82326,-28.73448,0]},"properties":{"name":"Colenso Periodical Court","description":"","OBJECTID":"266","PROVINCE":"KZN","OFFICIAL_N":"Colenso","FOMERLY_KN":"","ALSO_KNOWN":"","COURT_TYPE":"Periodical Court","COURT_TY_1":"PC","SMALLCLAIM":"No","EQUALITY_C":"No","STREET_ADR":"Sir George Street, Colenso","TOWN":"Colenso","MUNICIPALI":"Emnambithi-Ladysmith Local Municipality","DISTRICT":"uThukela","GPS_EAST":"29.8233","GPS_SOUTH":"-28.7345"}},
{"type":"Feature","geometry":{"type":"Point","coordinates":[30.05774,-28.01311,0]},"properties":{"name":"Dannhauser Magistrate Court","description":"","OBJECTID":"263","PROVINCE":"KZN","OFFICIAL_N":"Dannhauser","FOMERLY_KN":"","ALSO_KNOWN":"","COURT_TYPE":"Magistrate Court","COURT_TY_1":"MC","SMALLCLAIM":"Yes","EQUALITY_C":"Yes","STREET_ADR":"6 Church Street","TOWN":"Dannhauser","MUNICIPALI":"Dannhauser Local Municipality","DISTRICT":"Amajuba","GPS_EAST":"30.0577","GPS_SOUTH":"-28.0131"}},
{"type":"Feature","geometry":{"type":"Point","coordinates":[29.87935,-29.92981,0]},"properties":{"name":"Donnybrook Periodical Court","description":"","OBJECTID":"296","PROVINCE":"KZN","OFFICIAL_N":"Donnybrook","FOMERLY_KN":"","ALSO_KNOWN":"","COURT_TYPE":"Periodical Court","COURT_TY_1":"PC","SMALLCLAIM":"No","EQUALITY_C":"No","STREET_ADR":"Old Main Road,","TOWN":"Donnybrook","MUNICIPALI":"Ingwe Local Municipality","DISTRICT":"Sisonke","GPS_EAST":"29.8793","GPS_SOUTH":"-29.9298"}},
{"type":"Feature","geometry":{"type":"Point","coordinates":[30.6180217,-30.1936712,0]},"properties":{"name":"Dududu Branch Court","description":"","OBJECTID":"340","PROVINCE":"KZN","OFFICIAL_N":"Dududu","FOMERLY_KN":"","ALSO_KNOWN":"","COURT_TYPE":"Branch Court","COURT_TY_1":"BC","SMALLCLAIM":"No","EQUALITY_C":"Yes","STREET_ADR":"P77 Dududu Main Road","TOWN":"Dududu","MUNICIPALI":"uMdoni Local Municipality","DISTRICT":"Ugu","GPS_EAST":"30.617287","GPS_SOUTH":"-30.192860"}},
{"type":"Feature","geometry":{"type":"Point","coordinates":[29.20827,-28.74964,0]},"properties":{"name":"Dukuza Branch Court","description":"","OBJECTID":"331","PROVINCE":"KZN","OFFICIAL_N":"Dukuza","FOMERLY_KN":"","ALSO_KNOWN":"","COURT_TYPE":"Branch Court","COURT_TY_1":"BC","SMALLCLAIM":"No","EQUALITY_C":"No","STREET_ADR":"Dukuza Township,","TOWN":"Dukuza","MUNICIPALI":"Okhahlamba Local Municipality","DISTRICT":"uThukela","GPS_EAST":"29.2083","GPS_SOUTH":"-28.7496"}},
{"type":"Feature","geometry":{"type":"Point","coordinates":[30.23336,-28.16163,0]},"properties":{"name":"Dundee Magistrate Court","description":"","OBJECTID":"269","PROVINCE":"KZN","OFFICIAL_N":"Dundee","FOMERLY_KN":"","ALSO_KNOWN":"","COURT_TYPE":"Magistrate Court","COURT_TY_1":"MC","SMALLCLAIM":"Yes","EQUALITY_C":"Yes","STREET_ADR":"34 Beaconsfield Street,","TOWN":"Dundee","MUNICIPALI":"Endumeni Local Municipality","DISTRICT":"uMzinyathi","GPS_EAST":"30.2334","GPS_SOUTH":"-28.1616"}},
{"type":"Feature","geometry":{"type":"Point","coordinates":[31.02868,-29.84468,0]},"properties":{"name":"Durban Magistrate Court","description":"","OBJECTID":"283","PROVINCE":"KZN","OFFICIAL_N":"Durban","FOMERLY_KN":"","ALSO_KNOWN":"","COURT_TYPE":"Magistrate Court","COURT_TY_1":"MC","SMALLCLAIM":"Yes","EQUALITY_C":"Yes","STREET_ADR":"Cnr Somtseu &amp; Stanger Street","TOWN":"Durban","MUNICIPALI":"eThekwini Metropolitan Municipality","DISTRICT":"eThekwini","GPS_EAST":"31.0287","GPS_SOUTH":"-29.8447"}},
{"type":"Feature","geometry":{"type":"Point","coordinates":[30.15579,-28.46148,0]},"properties":{"name":"Ekuvukeni Branch Court","description":"","OBJECTID":"295","PROVINCE":"KZN","OFFICIAL_N":"Ekuvukeni","FOMERLY_KN":"","ALSO_KNOWN":"","COURT_TYPE":"Branch Court","COURT_TY_1":"BC","SMALLCLAIM":"No","EQUALITY_C":"No","STREET_ADR":"Next to Ekuvukeni Police Station, Wasbank,","TOWN":"Wesbank","MUNICIPALI":"Indaka Local Municipality","DISTRICT":"uThukela","GPS_EAST":"30.1558","GPS_SOUTH":"-28.4615"}},
{"type":"Feature","geometry":{"type":"Point","coordinates":[29.95882,-28.4012,0]},"properties":{"name":"Elandslaagte Periodical Court","description":"","OBJECTID":"267","PROVINCE":"KZN","OFFICIAL_N":"Elandslaagte","FOMERLY_KN":"","ALSO_KNOWN":"","COURT_TYPE":"Periodical Court","COURT_TY_1":"PC","SMALLCLAIM":"No","EQUALITY_C":"No","STREET_ADR":"Old Main Road,","TOWN":"Elandslaagte","MUNICIPALI":"Emnambithi-Ladysmith Local Municipality","DISTRICT":"uThukela","GPS_EAST":"29.9588","GPS_SOUTH":"-28.4012"}},
{"type":"Feature","geometry":{"type":"Point","coordinates":[30.92513,-29.96176,0]},"properties":{"name":"Emlazi Magistrate Court","description":"","OBJECTID":"284","PROVINCE":"KZN","OFFICIAL_N":"Emlazi (Umlazi)","FOMERLY_KN":"Umlazi","ALSO_KNOWN":"","COURT_TYPE":"Magistrate Court","COURT_TY_1":"MC","SMALLCLAIM":"Yes","EQUALITY_C":"Yes","STREET_ADR":"V 1318 Mangosuthu High","TOWN":"Emlazi","MUNICIPALI":"eThekwini Metropolitan Municipality","DISTRICT":"eThekwini","GPS_EAST":"30.9251","GPS_SOUTH":"-29.9618"}},
{"type":"Feature","geometry":{"type":"Point","coordinates":[31.89248,-28.74345,0]},"properties":{"name":"Empangeni Magistrate Court","description":"","OBJECTID":"345","PROVINCE":"KZN","OFFICIAL_N":"Empangeni","FOMERLY_KN":"","ALSO_KNOWN":"","COURT_TYPE":"Magistrate Court","COURT_TY_1":"MC","SMALLCLAIM":"Yes","EQUALITY_C":"Yes","STREET_ADR":"6 Union Street, Empangeni","TOWN":"Empangeni","MUNICIPALI":"uMhlathuze Local Municipality","DISTRICT":"uThungulu","GPS_EAST":"31.8925","GPS_SOUTH":"-28.7434"}},
{"type":"Feature","geometry":{"type":"Point","coordinates":[31.45578,-28.90295,0]},"properties":{"name":"Eshowe Magistrate Court","description":"","OBJECTID":"349","PROVINCE":"KZN","OFFICIAL_N":"Eshowe","FOMERLY_KN":"","ALSO_KNOWN":"","COURT_TYPE":"Magistrate Court","COURT_TY_1":"MC","SMALLCLAIM":"Yes","EQUALITY_C":"Yes","STREET_ADR":"c/o Main &amp; William","TOWN":"Eshowe","MUNICIPALI":"uMlalazi Local Municipality","DISTRICT":"uThungulu","GPS_EAST":"31.4558","GPS_SOUTH":"-28.903"}},
{"type":"Feature","geometry":{"type":"Point","coordinates":[31.90472,-28.874449,0]},"properties":{"name":"Esikhawini Branch Court","description":"","OBJECTID":"346","PROVINCE":"KZN","OFFICIAL_N":"Esikhawini","FOMERLY_KN":"","ALSO_KNOWN":"","COURT_TYPE":"Branch Court","COURT_TY_1":"BC","SMALLCLAIM":"No","EQUALITY_C":"No","STREET_ADR":"H11 Ilanda Street,","TOWN":"Esikhawini","MUNICIPALI":"uMhlathuze Local Municipality","DISTRICT":"uThungulu","GPS_EAST":"31.9047","GPS_SOUTH":"-28.8744"}},
{"type":"Feature","geometry":{"type":"Point","coordinates":[29.87265,-29.00583,0]},"properties":{"name":"Estcourt Magistrate Court","description":"","OBJECTID":"320","PROVINCE":"KZN","OFFICIAL_N":"Estcourt","FOMERLY_KN":"","ALSO_KNOWN":"","COURT_TYPE":"Magistrate Court","COURT_TY_1":"MC","SMALLCLAIM":"Yes","EQUALITY_C":"Yes","STREET_ADR":"172 Albert Street,","TOWN":"Estcourt","MUNICIPALI":"New Municipal to be proclaimed","DISTRICT":"uThukela","GPS_EAST":"29.8727","GPS_SOUTH":"-29.0058"}},
{"type":"Feature","geometry":{"type":"Point","coordinates":[29.92848,-28.59661,0]},"properties":{"name":"Ezakheni Detached Court","description":"","OBJECTID":"321","PROVINCE":"KZN","OFFICIAL_N":"Ezakheni","FOMERLY_KN":"","ALSO_KNOWN":"","COURT_TYPE":"Detached Court","COURT_TY_1":"DC","SMALLCLAIM":"No","EQUALITY_C":"No","STREET_ADR":"797 Ingonyama Street,","TOWN":"Ezakheni","MUNICIPALI":"New municipal to be proclaimed","DISTRICT":"uThukela","GPS_EAST":"29.9285","GPS_SOUTH":"-28.5966"}},
{"type":"Feature","geometry":{"type":"Point","coordinates":[29.5799633,-30.1482982,0]},"properties":{"name":"Insikeni Periodical Court","description":"","OBJECTID":"255","PROVINCE":"KZN","OFFICIAL_N":"Insikeni","FOMERLY_KN":"","ALSO_KNOWN":"Ntsikikeni","COURT_TYPE":"Periodical Court","COURT_TY_1":"PC","SMALLCLAIM":"No","EQUALITY_C":"No","STREET_ADR":"Non","TOWN":"Insikeni","MUNICIPALI":"Umzimkhulu Local Municipality","DISTRICT":"Sisonke","GPS_EAST":"29.558","GPS_SOUTH":"-30.1376"}},
{"type":"Feature","geometry":{"type":"Point","coordinates":[31.58156,-29.02721,0]},"properties":{"name":"Gingindlovu Periodical Court","description":"","OBJECTID":"350","PROVINCE":"KZN","OFFICIAL_N":"Gingindlovu","FOMERLY_KN":"","ALSO_KNOWN":"","COURT_TYPE":"Periodical Court","COURT_TY_1":"PC","SMALLCLAIM":"No","EQUALITY_C":"No","STREET_ADR":"Foxon Str,","TOWN":"Gingindlovu","MUNICIPALI":"uMlalazi Local Municipality","DISTRICT":"uThungulu","GPS_EAST":"31.5816","GPS_SOUTH":"-29.0272"}},
{"type":"Feature","geometry":{"type":"Point","coordinates":[30.15094,-28.17633,0]},"properties":{"name":"Glencoe Magistrate Court","description":"","OBJECTID":"270","PROVINCE":"KZN","OFFICIAL_N":"Glencoe","FOMERLY_KN":"","ALSO_KNOWN":"","COURT_TYPE":"Magistrate Court","COURT_TY_1":"MC","SMALLCLAIM":"Yes","EQUALITY_C":"Yes","STREET_ADR":"Justice Lane, c/o Justice &amp; Biggar Streets,","TOWN":"Glencoe","MUNICIPALI":"Endumeni Local Municipality","DISTRICT":"uMzinyathi","GPS_EAST":"30.1509","GPS_SOUTH":"-28.1763"}},
{"type":"Feature","geometry":{"type":"Point","coordinates":[31.03228,-27.97621,0]},"properties":{"name":"Gluckstadt Periodical Court","description":"","OBJECTID":"259","PROVINCE":"KZN","OFFICIAL_N":"Gluckstadt","FOMERLY_KN":"","ALSO_KNOWN":"","COURT_TYPE":"Periodical Court","COURT_TY_1":"PC","SMALLCLAIM":"No","EQUALITY_C":"No","STREET_ADR":"","TOWN":"Gluckstadt","MUNICIPALI":"Abaqulusi Local Municipality","DISTRICT":"Zululand","GPS_EAST":"31.0323","GPS_SOUTH":"-27.9762"}},
{"type":"Feature","geometry":{"type":"Point","coordinates":[30.593941,-29.06085,0]},"properties":{"name":"Greytown Magistrate Court","description":"","OBJECTID":"357","PROVINCE":"KZN","OFFICIAL_N":"Greytown","FOMERLY_KN":"","ALSO_KNOWN":"","COURT_TYPE":"Magistrate Court","COURT_TY_1":"MC","SMALLCLAIM":"Yes","EQUALITY_C":"Yes","STREET_ADR":"55 Bell (c/o Bell &amp; Pine) 19 Hoof Street","TOWN":"Greytown","MUNICIPALI":"Umvoti Local Municipality","DISTRICT":"uMzinyathi","GPS_EAST":"30.5939","GPS_SOUTH":"-29.0608"}},
{"type":"Feature","geometry":{"type":"Point","coordinates":[29.88255,-30.57632,0]},"properties":{"name":"Harding Magistrate Court","description":"","OBJECTID":"356","PROVINCE":"KZN","OFFICIAL_N":"Harding","FOMERLY_KN":"","ALSO_KNOWN":"","COURT_TYPE":"Magistrate Court","COURT_TY_1":"MC","SMALLCLAIM":"Yes","EQUALITY_C":"Yes","STREET_ADR":"Main Road","TOWN":"Harding","MUNICIPALI":"uMuziwabantu Local Municipality","DISTRICT":"Ugu","GPS_EAST":"29.8825","GPS_SOUTH":"-30.5763"}},
{"type":"Feature","geometry":{"type":"Point","coordinates":[30.57074,-30.57749,0]},"properties":{"name":"Hibberdene Periodical Court","description":"","OBJECTID":"290","PROVINCE":"KZN","OFFICIAL_N":"Hibberdene","FOMERLY_KN":"","ALSO_KNOWN":"","COURT_TYPE":"Periodical Court","COURT_TY_1":"PC","SMALLCLAIM":"No","EQUALITY_C":"No","STREET_ADR":"11 Minerva Cresent","TOWN":"Hibberdene","MUNICIPALI":"Hibiscus Coast Local Municipality","DISTRICT":"Ugu","GPS_EAST":"30.5707","GPS_SOUTH":"-30.5775"}},
{"type":"Feature","geometry":{"type":"Point","coordinates":[30.19244,-30.25927,0]},"properties":{"name":"Highflats Periodical Court","description":"","OBJECTID":"336","PROVINCE":"KZN","OFFICIAL_N":"Highflats","FOMERLY_KN":"","ALSO_KNOWN":"","COURT_TYPE":"Periodical Court","COURT_TY_1":"PC","SMALLCLAIM":"No","EQUALITY_C":"No","STREET_ADR":"Main Road,","TOWN":"Highflats","MUNICIPALI":"Ubuhlebezwe Local Municipality","DISTRICT":"Harry Gwala","GPS_EAST":"30.1924","GPS_SOUTH":"-30.2593"}},
{"type":"Feature","geometry":{"type":"Point","coordinates":[29.51316,-29.74987,0]},"properties":{"name":"Himeville Magistrate Court","description":"","OBJECTID":"299","PROVINCE":"KZN","OFFICIAL_N":"Himeville","FOMERLY_KN":"","ALSO_KNOWN":"","COURT_TYPE":"Magistrate Court","COURT_TY_1":"MC","SMALLCLAIM":"Yes","EQUALITY_C":"Yes","STREET_ADR":"5 George Street","TOWN":"Himeville","MUNICIPALI":"Kwa Sani Local Municipality","DISTRICT":"Sisonke","GPS_EAST":"29.5132","GPS_SOUTH":"-29.7499"}},
{"type":"Feature","geometry":{"type":"Point","coordinates":[31.87623,-28.14621,0]},"properties":{"name":"Hlabisa Branch Court","description":"","OBJECTID":"318","PROVINCE":"KZN","OFFICIAL_N":"Hlabisa","FOMERLY_KN":"","ALSO_KNOWN":"","COURT_TYPE":"Branch Court","COURT_TY_1":"BC","SMALLCLAIM":"No","EQUALITY_C":"No","STREET_ADR":"Lot 318 Saunders Street","TOWN":"Hlabisa","MUNICIPALI":"New Municipal to be proclaimed","DISTRICT":"uMkhanyakude","GPS_EAST":"31.8762","GPS_SOUTH":"-28.1462"}},
{"type":"Feature","geometry":{"type":"Point","coordinates":[29.85464,-29.76427,0]},"properties":{"name":"Hlanganani [KZN] Magistrate Court","description":"","OBJECTID":"317","PROVINCE":"KZN","OFFICIAL_N":"Hlanganani [KZN]","FOMERLY_KN":"","ALSO_KNOWN":"","COURT_TYPE":"Magistrate Court","COURT_TY_1":"MC","SMALLCLAIM":"Yes","EQUALITY_C":"Yes","STREET_ADR":"Bulamain Road, Polela Centre","TOWN":"Hlanganani [KZN]","MUNICIPALI":"New Municipal to be proclaimed","DISTRICT":"Sisonke","GPS_EAST":"29.8546","GPS_SOUTH":"-29.7643"}},
{"type":"Feature","geometry":{"type":"Point","coordinates":[31.00982,-27.73714,0]},"properties":{"name":"Hlobane Periodical Court","description":"","OBJECTID":"260","PROVINCE":"KZN","OFFICIAL_N":"Hlobane","FOMERLY_KN":"","ALSO_KNOWN":"","COURT_TYPE":"Periodical Court","COURT_TY_1":"PC","SMALLCLAIM":"No","EQUALITY_C":"No","STREET_ADR":"","TOWN":"Hlobane","MUNICIPALI":"Abaqulusi Local Municipality","DISTRICT":"Zululand","GPS_EAST":"31.0098","GPS_SOUTH":"-27.7371"}},
{"type":"Feature","geometry":{"type":"Point","coordinates":[32.26811,-28.01969,0]},"properties":{"name":"Hluhluwe Periodical Court","description":"","OBJECTID":"319","PROVINCE":"KZN","OFFICIAL_N":"Hluhluwe","FOMERLY_KN":"","ALSO_KNOWN":"","COURT_TYPE":"Periodical Court","COURT_TY_1":"PC","SMALLCLAIM":"No","EQUALITY_C":"No","STREET_ADR":"Old Main Road, Hluhluwe","TOWN":"Hluhluwe","MUNICIPALI":"New Municipal to be proclaimed","DISTRICT":"uMkhanyakude","GPS_EAST":"32.2681","GPS_SOUTH":"-28.0197"}},
{"type":"Feature","geometry":{"type":"Point","coordinates":[30.23121,-29.48788,0]},"properties":{"name":"Howick Magistrate Court","description":"","OBJECTID":"353","PROVINCE":"KZN","OFFICIAL_N":"Howick","FOMERLY_KN":"","ALSO_KNOWN":"","COURT_TYPE":"Magistrate Court","COURT_TY_1":"MC","SMALLCLAIM":"Yes","EQUALITY_C":"Yes","STREET_ADR":"Morling Street","TOWN":"Howick","MUNICIPALI":"uMngeni Local Municipality","DISTRICT":"uMgungundlovu","GPS_EAST":"30.2312","GPS_SOUTH":"-29.4879"}},
{"type":"Feature","geometry":{"type":"Point","coordinates":[29.86722,-29.5986,0]},"properties":{"name":"Impendle Magistrate Court","description":"","OBJECTID":"294","PROVINCE":"KZN","OFFICIAL_N":"Impendle","FOMERLY_KN":"","ALSO_KNOWN":"","COURT_TYPE":"Magistrate Court","COURT_TY_1":"MC","SMALLCLAIM":"Yes","EQUALITY_C":"Yes","STREET_ADR":"23 Mafahlane Road,","TOWN":"Impendle","MUNICIPALI":"Impendle Local Municipality","DISTRICT":"uMgungundlovu","GPS_EAST":"29.8672","GPS_SOUTH":"-29.5986"}},
{"type":"Feature","geometry":{"type":"Point","coordinates":[31.99678,-27.13309,0]},"properties":{"name":"Ingwavuma Magistrate Court","description":"","OBJECTID":"298","PROVINCE":"KZN","OFFICIAL_N":"Ingwavuma","FOMERLY_KN":"","ALSO_KNOWN":"","COURT_TYPE":"Magistrate Court","COURT_TY_1":"MC","SMALLCLAIM":"Yes","EQUALITY_C":"Yes","STREET_ADR":"Main Road, Ingwavuma","TOWN":"Ingwavuma","MUNICIPALI":"Jozini Local Municipality","DISTRICT":"uMkhanyakude","GPS_EAST":"31.9968","GPS_SOUTH":"-27.1331"}},
{"type":"Feature","geometry":{"type":"Point","coordinates":[31.49991,-28.8899,0]},"properties":{"name":"Inkanyezi Branch Court","description":"","OBJECTID":"351","PROVINCE":"KZN","OFFICIAL_N":"Inkanyezi","FOMERLY_KN":"","ALSO_KNOWN":"","COURT_TYPE":"Branch Court","COURT_TY_1":"BC","SMALLCLAIM":"No","EQUALITY_C":"No","STREET_ADR":"King Dinuzulu Township, Iknayezi Street,","TOWN":"Eshowe","MUNICIPALI":"uMlalazi Local Municipality","DISTRICT":"uThungulu","GPS_EAST":"31.4999","GPS_SOUTH":"-28.8899"}},
{"type":"Feature","geometry":{"type":"Point","coordinates":[31.46347,-29.0798,0]},"properties":{"name":"Inyono Periodical Court","description":"","OBJECTID":"302","PROVINCE":"KZN","OFFICIAL_N":"Inyono","FOMERLY_KN":"","ALSO_KNOWN":"","COURT_TYPE":"Periodical Court","COURT_TY_1":"PC","SMALLCLAIM":"No","EQUALITY_C":"No","STREET_ADR":"","TOWN":"Inyono","MUNICIPALI":"Mandeni Local Municipality","DISTRICT":"iLembe","GPS_EAST":"31.4635","GPS_SOUTH":"-29.0798"}},
{"type":"Feature","geometry":{"type":"Point","coordinates":[30.12892,-30.78542,0]},"properties":{"name":"Izingolweni Branch Court","description":"","OBJECTID":"287","PROVINCE":"KZN","OFFICIAL_N":"Izingolweni","FOMERLY_KN":"","ALSO_KNOWN":"","COURT_TYPE":"Branch Court","COURT_TY_1":"BC","SMALLCLAIM":"No","EQUALITY_C":"No","STREET_ADR":"Main Road","TOWN":"Izingolweni","MUNICIPALI":"Ezinqoleni Local Municipality","DISTRICT":"Ugu","GPS_EAST":"30.1289","GPS_SOUTH":"-30.7854"}},
{"type":"Feature","geometry":{"type":"Point","coordinates":[30.05953,-30.15172,0]},"properties":{"name":"Ixopo Magistrate Court","description":"","OBJECTID":"335","PROVINCE":"KZN","OFFICIAL_N":"Ixopo","FOMERLY_KN":"","ALSO_KNOWN":"","COURT_TYPE":"Magistrate Court","COURT_TY_1":"MC","SMALLCLAIM":"Yes","EQUALITY_C":"Yes","STREET_ADR":"52 Margaret Street,","TOWN":"Ixopo","MUNICIPALI":"Ubuhlebezwe Local Municipality","DISTRICT":"Harry Gwala","GPS_EAST":"30.0595","GPS_SOUTH":"-30.1517"}},
{"type":"Feature","geometry":{"type":"Point","coordinates":[29.4257,-30.55084,0]},"properties":{"name":"Kokstad Magistrate Court","description":"","OBJECTID":"289","PROVINCE":"KZN","OFFICIAL_N":"Kokstad","FOMERLY_KN":"","ALSO_KNOWN":"","COURT_TYPE":"Magistrate Court","COURT_TY_1":"MC","SMALLCLAIM":"Yes","EQUALITY_C":"Yes","STREET_ADR":"5 Barker Street","TOWN":"Kokstad","MUNICIPALI":"Greater Kokstad Local Municipality","DISTRICT":"Sisonke","GPS_EAST":"29.4257","GPS_SOUTH":"-30.5508"}},
{"type":"Feature","geometry":{"type":"Point","coordinates":[30.86267,-28.96662,0]},"properties":{"name":"Kranskop Magistrate Court","description":"","OBJECTID":"358","PROVINCE":"KZN","OFFICIAL_N":"Kranskop","FOMERLY_KN":"","ALSO_KNOWN":"","COURT_TYPE":"Magistrate Court","COURT_TY_1":"MC","SMALLCLAIM":"Yes","EQUALITY_C":"Yes","STREET_ADR":"1 Main Street, Kranskop","TOWN":"Kranskop","MUNICIPALI":"Umvoti Local Municipality","DISTRICT":"uMzinyathi","GPS_EAST":"30.8627","GPS_SOUTH":"-28.9666"}},
{"type":"Feature","geometry":{"type":"Point","coordinates":[31.29045,-29.338,0]},"properties":{"name":"KwaDukuza Magistrate Court","description":"","OBJECTID":"301","PROVINCE":"KZN","OFFICIAL_N":"KwaDukuza","FOMERLY_KN":"","ALSO_KNOWN":"","COURT_TYPE":"Magistrate Court","COURT_TY_1":"MC","SMALLCLAIM":"Yes","EQUALITY_C":"Yes","STREET_ADR":"127 King Shaka Street","TOWN":"KwaDukuza","MUNICIPALI":"KwaDukuza Local Municipality","DISTRICT":"iLembe","GPS_EAST":"31.2904","GPS_SOUTH":"-29.338"}},
{"type":"Feature","geometry":{"type":"Point","coordinates":[31.00065,-29.73654,0]},"properties":{"name":"KwaMashu Branch Court","description":"","OBJECTID":"285","PROVINCE":"KZN","OFFICIAL_N":"KwaMashu","FOMERLY_KN":"","ALSO_KNOWN":"","COURT_TYPE":"Branch Court","COURT_TY_1":"BC","SMALLCLAIM":"No","EQUALITY_C":"No","STREET_ADR":"1137 Ntombela Road","TOWN":"KwaMashu","MUNICIPALI":"eThekwini Municipality Metropolitan","DISTRICT":"eThekwini","GPS_EAST":"31.0007","GPS_SOUTH":"-29.7365"}},
{"type":"Feature","geometry":{"type":"Point","coordinates":[32.08577,-28.59909,0]},"properties":{"name":"Kwambonambi Periodical Court","description":"","OBJECTID":"305","PROVINCE":"KZN","OFFICIAL_N":"Kwambonambi","FOMERLY_KN":"","ALSO_KNOWN":"","COURT_TYPE":"Periodical Court","COURT_TY_1":"PC","SMALLCLAIM":"No","EQUALITY_C":"No","STREET_ADR":"Main Street","TOWN":"Kwambonambi","MUNICIPALI":"Mbonambi Local Municipality","DISTRICT":"uThungulu","GPS_EAST":"32.0858","GPS_SOUTH":"-28.5991"}},
{"type":"Feature","geometry":{"type":"Point","coordinates":[32.13836,-28.43328,0]},"properties":{"name":"KwaMsane Branch Court","description":"","OBJECTID":"313","PROVINCE":"KZN","OFFICIAL_N":"KwaMsane","FOMERLY_KN":"","ALSO_KNOWN":"","COURT_TYPE":"Branch Court","COURT_TY_1":"BC","SMALLCLAIM":"No","EQUALITY_C":"No","STREET_ADR":"Mfundo Street,","TOWN":"KwaMsane","MUNICIPALI":"Mtubatuba Local Municipality","DISTRICT":"uMkhanyakude","GPS_EAST":"32.1384","GPS_SOUTH":"-28.4333"}},
{"type":"Feature","geometry":{"type":"Point","coordinates":[32.74402,-26.99695,0]},"properties":{"name":"Kwangwanase [Manguzi] Periodical Court","description":"","OBJECTID":"344","PROVINCE":"KZN","OFFICIAL_N":"Kwangwanase","FOMERLY_KN":"","ALSO_KNOWN":"Manguzi","COURT_TYPE":"Periodical Court","COURT_TY_1":"PC","SMALLCLAIM":"No","EQUALITY_C":"No","STREET_ADR":"main Road","TOWN":"Kwangwanase","MUNICIPALI":"uMhlabuyalingana Local Municipality","DISTRICT":"Umkhayakude","GPS_EAST":"32.744","GPS_SOUTH":"-26.9969"}},
{"type":"Feature","geometry":{"type":"Point","coordinates":[29.77898,-28.55916,0]},"properties":{"name":"Ladysmith Magistrate Court","description":"","OBJECTID":"268","PROVINCE":"KZN","OFFICIAL_N":"Ladysmith","FOMERLY_KN":"","ALSO_KNOWN":"","COURT_TYPE":"Magistrate Court","COURT_TY_1":"MC","SMALLCLAIM":"Yes","EQUALITY_C":"Yes","STREET_ADR":"16 Keate Street,","TOWN":"Ladysmith","MUNICIPALI":"Emnambithi-Ladysmith Local Municipality","DISTRICT":"uThukela","GPS_EAST":"29.779","GPS_SOUTH":"-28.5592"}},
{"type":"Feature","geometry":{"type":"Point","coordinates":[31.2814531,-27.5772534,0]},"properties":{"name":"Louwsburg Magistrate Court","description":"","OBJECTID":"261","PROVINCE":"KZN","OFFICIAL_N":"Louwsburg","FOMERLY_KN":"","ALSO_KNOWN":"","COURT_TYPE":"Magistrate Court","COURT_TY_1":"MC","SMALLCLAIM":"Yes","EQUALITY_C":"Yes","STREET_ADR":"Cnr King & Avenue Street","TOWN":"Louwsburg","MUNICIPALI":"Abaqulusi Local Municipality","DISTRICT":"Zululand","GPS_EAST":"31.28259","GPS_SOUTH":"-27.58056\n"}},
{"type":"Feature","geometry":{"type":"Point","coordinates":[30.02838,-27.76073,0]},"properties":{"name":"Madadeni Detached Court","description":"","OBJECTID":"323","PROVINCE":"KZN","OFFICIAL_N":"Madadeni","FOMERLY_KN":"","ALSO_KNOWN":"","COURT_TYPE":"Detached Court","COURT_TY_1":"DC","SMALLCLAIM":"Yes","EQUALITY_C":"Yes","STREET_ADR":"2583 Section 2, Next to Madadeni SAPS","TOWN":"Madadeni","MUNICIPALI":"Newcastle Local Municipality","DISTRICT":"Amajuba","GPS_EAST":"30.0284","GPS_SOUTH":"-27.7607"}},
{"type":"Feature","geometry":{"type":"Point","coordinates":[31.64893,-27.53354,0]},"properties":{"name":"Magudu Periodical Court","description":"","OBJECTID":"362","PROVINCE":"KZN","OFFICIAL_N":"Magudu","FOMERLY_KN":"","ALSO_KNOWN":"","COURT_TYPE":"Periodical Court","COURT_TY_1":"PC","SMALLCLAIM":"No","EQUALITY_C":"No","STREET_ADR":"Main Street,","TOWN":"Magudu","MUNICIPALI":"uPhongolo Local Municipality","DISTRICT":"Zululand","GPS_EAST":"31.6489","GPS_SOUTH":"-27.5335"}},
{"type":"Feature","geometry":{"type":"Point","coordinates":[31.46825,-28.235,0]},"properties":{"name":"Mahlabatini Magistrate Court","description":"","OBJECTID":"288","PROVINCE":"KZN","OFFICIAL_N":"Mahlabatini","FOMERLY_KN":"","ALSO_KNOWN":"","COURT_TYPE":"Magistrate Court","COURT_TY_1":"MC","SMALLCLAIM":"Yes","EQUALITY_C":"Yes","STREET_ADR":"Mashona Main Road,","TOWN":"Mahlabatini","MUNICIPALI":"Ezinqoleni Local Municipality","DISTRICT":"Ugu","GPS_EAST":"31.4683","GPS_SOUTH":"-28.235"}},
{"type":"Feature","geometry":{"type":"Point","coordinates":[31.06571,-29.1585,0]},"properties":{"name":"Mapumulo Magistrate Court","description":"","OBJECTID":"303","PROVINCE":"KZN","OFFICIAL_N":"Mapumulo","FOMERLY_KN":"","ALSO_KNOWN":"","COURT_TYPE":"Magistrate Court","COURT_TY_1":"MC","SMALLCLAIM":"Yes","EQUALITY_C":"Yes","STREET_ADR":"R47 Main Road,","TOWN":"Mapumulo","MUNICIPALI":"Maphumulo Local Municipality","DISTRICT":"iLembe","GPS_EAST":"31.0657","GPS_SOUTH":"-29.1585"}},
{"type":"Feature","geometry":{"type":"Point","coordinates":[32.5989,-27.48021,0]},"properties":{"name":"Mbazwana Periodical Court","description":"","OBJECTID":"343","PROVINCE":"KZN","OFFICIAL_N":"Mbazwana","FOMERLY_KN":"","ALSO_KNOWN":"","COURT_TYPE":"Periodical Court","COURT_TY_1":"PC","SMALLCLAIM":"No","EQUALITY_C":"No","STREET_ADR":"","TOWN":"Mbazwana","MUNICIPALI":"uMhlabuyalingana Local Municipality","DISTRICT":"Umkhanyakude","GPS_EAST":"32.5989","GPS_SOUTH":"-27.4802"}},
{"type":"Feature","geometry":{"type":"Point","coordinates":[31.40119,-28.59116,0]},"properties":{"name":"Melmoth Magistrate Court","description":"","OBJECTID":"312","PROVINCE":"KZN","OFFICIAL_N":"Melmoth","FOMERLY_KN":"","ALSO_KNOWN":"","COURT_TYPE":"Magistrate Court","COURT_TY_1":"MC","SMALLCLAIM":"Yes","EQUALITY_C":"Yes","STREET_ADR":"25 Reinhold Street","TOWN":"Melmoth","MUNICIPALI":"Mthonjaneni Local Municipality","DISTRICT":"uThungulu","GPS_EAST":"31.4012","GPS_SOUTH":"-28.5912"}},
{"type":"Feature","geometry":{"type":"Point","coordinates":[30.50502,-29.97061,0]},"properties":{"name":"Mid‐Illovo Periodical Court","description":"","OBJECTID":"307","PROVINCE":"KZN","OFFICIAL_N":"Mid‐Illovo","FOMERLY_KN":"","ALSO_KNOWN":"","COURT_TYPE":"Periodical Court","COURT_TY_1":"PC","SMALLCLAIM":"No","EQUALITY_C":"No","STREET_ADR":"Main Road","TOWN":"Mid‐Illovo","MUNICIPALI":"Mkhambathini Local Municipality","DISTRICT":"uMgungundlovu","GPS_EAST":"30.505","GPS_SOUTH":"-29.9706"}},
{"type":"Feature","geometry":{"type":"Point","coordinates":[29.995982,-29.212406,0]},"properties":{"name":"Mooi River Magistrate Court","description":"","OBJECTID":"308","PROVINCE":"KZN","OFFICIAL_N":"Mooi River","FOMERLY_KN":"","ALSO_KNOWN":"","COURT_TYPE":"Magistrate Court","COURT_TY_1":"MC","SMALLCLAIM":"Yes","EQUALITY_C":"Yes","STREET_ADR":"15 Clogthon Terrace Street","TOWN":"Mooi River","MUNICIPALI":"Mpofana Local Municipality","DISTRICT":"uMgungundlovu","GPS_EAST":"29.996","GPS_SOUTH":"-29.2124"}},
{"type":"Feature","geometry":{"type":"Point","coordinates":[30.65599,-29.79584,0]},"properties":{"name":"Mpumalanga Branch Court","description":"","OBJECTID":"274","PROVINCE":"KZN","OFFICIAL_N":"Mpumalanga","FOMERLY_KN":"","ALSO_KNOWN":"","COURT_TYPE":"Branch Court","COURT_TY_1":"BC","SMALLCLAIM":"No","EQUALITY_C":"No","STREET_ADR":"1 Kelly Street","TOWN":"Mpumalanga","MUNICIPALI":"eThekwini Metropolitan Municipality","DISTRICT":"eThekwini","GPS_EAST":"30.656","GPS_SOUTH":"-29.7958"}},
{"type":"Feature","geometry":{"type":"Point","coordinates":[30.55508,-28.74837,0]},"properties":{"name":"Msinga Magistrate Court","description":"","OBJECTID":"309","PROVINCE":"KZN","OFFICIAL_N":"Msinga","FOMERLY_KN":"","ALSO_KNOWN":"","COURT_TYPE":"Magistrate Court","COURT_TY_1":"MC","SMALLCLAIM":"Yes","EQUALITY_C":"Yes","STREET_ADR":"Tugela Ferry Village, Main Road","TOWN":"Msinga","MUNICIPALI":"Msinga Local Municipality","DISTRICT":"uMzinyathi","GPS_EAST":"30.5551","GPS_SOUTH":"-28.7484"}},
{"type":"Feature","geometry":{"type":"Point","coordinates":[32.18453,-28.42036,0]},"properties":{"name":"Mtubatuba Magistrate Court","description":"","OBJECTID":"314","PROVINCE":"KZN","OFFICIAL_N":"Mtubatuba","FOMERLY_KN":"","ALSO_KNOWN":"","COURT_TYPE":"Magistrate Court","COURT_TY_1":"MC","SMALLCLAIM":"Yes","EQUALITY_C":"Yes","STREET_ADR":"55E Old Riverview Road","TOWN":"Mtubatuba","MUNICIPALI":"Mtubatuba Local Municipality","DISTRICT":"uMkhanyakude","GPS_EAST":"32.1845","GPS_SOUTH":"-28.4204"}},
{"type":"Feature","geometry":{"type":"Point","coordinates":[31.75679,-28.95224,0]},"properties":{"name":"Mtunzini Magistrate Court","description":"","OBJECTID":"352","PROVINCE":"KZN","OFFICIAL_N":"Mtunzini","FOMERLY_KN":"","ALSO_KNOWN":"","COURT_TYPE":"Magistrate Court","COURT_TY_1":"MC","SMALLCLAIM":"Yes","EQUALITY_C":"Yes","STREET_ADR":"10 Hely Hutchinson Street","TOWN":"Mtunzini","MUNICIPALI":"uMlalazi Local Municipality","DISTRICT":"uThungulu","GPS_EAST":"31.7568","GPS_SOUTH":"-28.9522"}},
{"type":"Feature","geometry":{"type":"Point","coordinates":[30.086599,-28.853078,0]},"properties":{"name":"Muden Periodical Court","description":"","OBJECTID":"359","PROVINCE":"KZN","OFFICIAL_N":"Muden","FOMERLY_KN":"","ALSO_KNOWN":"","COURT_TYPE":"Periodical Court","COURT_TY_1":"PC","SMALLCLAIM":"No","EQUALITY_C":"No","STREET_ADR":"Retief Street","TOWN":"Weenen","MUNICIPALI":"Umvoti Local Municipality","DISTRICT":"uMzinyathi","GPS_EAST":"30.0866","GPS_SOUTH":"-28.8531"}},
{"type":"Feature","geometry":{"type":"Point","coordinates":[31.58298,-27.34603,0]},"properties":{"name":"Ncotshane [Simdlangentsha] Branch Court","description":"","OBJECTID":"365","PROVINCE":"KZN","OFFICIAL_N":"Ncotshane ","FOMERLY_KN":"","ALSO_KNOWN":"Simdlangentsha","COURT_TYPE":"Branch Court","COURT_TY_1":"BC","SMALLCLAIM":"No","EQUALITY_C":"No","STREET_ADR":"B219 Emgazini Str,","TOWN":"Pongola","MUNICIPALI":"uPhongolo Local Municipality","DISTRICT":"Zululand","GPS_EAST":"31.583","GPS_SOUTH":"-27.346"}},
{"type":"Feature","geometry":{"type":"Point","coordinates":[30.5295,-29.35189,0]},"properties":{"name":"New Hanover Magistrate Court","description":"","OBJECTID":"354","PROVINCE":"KZN","OFFICIAL_N":"New Hanover","FOMERLY_KN":"","ALSO_KNOWN":"","COURT_TYPE":"Magistrate Court","COURT_TY_1":"MC","SMALLCLAIM":"Yes","EQUALITY_C":"Yes","STREET_ADR":"Main Road","TOWN":"New Hanover","MUNICIPALI":"uMshwathi Local Municipality","DISTRICT":"uMgungundlovu","GPS_EAST":"30.5295","GPS_SOUTH":"-29.3519"}},
{"type":"Feature","geometry":{"type":"Point","coordinates":[29.93178,-27.75562,0]},"properties":{"name":"Newcastle Magistrate Court","description":"","OBJECTID":"324","PROVINCE":"KZN","OFFICIAL_N":"Newcastle","FOMERLY_KN":"","ALSO_KNOWN":"","COURT_TYPE":"Magistrate Court","COURT_TY_1":"MC","SMALLCLAIM":"Yes","EQUALITY_C":"Yes","STREET_ADR":"37 Murchison Street","TOWN":"Newcastle","MUNICIPALI":"Newcastle Local Municipality","DISTRICT":"Amajuba","GPS_EAST":"29.9318","GPS_SOUTH":"-27.7556"}},
{"type":"Feature","geometry":{"type":"Point","coordinates":[30.95591,-29.78147,0]},"properties":{"name":"Newlands West Periodical Court","description":"","OBJECTID":"275","PROVINCE":"KZN","OFFICIAL_N":"Newlands West","FOMERLY_KN":"","ALSO_KNOWN":"","COURT_TYPE":"Periodical Court","COURT_TY_1":"PC","SMALLCLAIM":"No","EQUALITY_C":"No","STREET_ADR":"Loop West Street","TOWN":"Newlands West","MUNICIPALI":"eThekwini Metropolitan Municipality","DISTRICT":"eThekwini","GPS_EAST":"30.9559","GPS_SOUTH":"-29.7815"}},
{"type":"Feature","geometry":{"type":"Point","coordinates":[30.93638,-29.51556,0]},"properties":{"name":"Ndwedwe Magistrate Court","description":"","OBJECTID":"316","PROVINCE":"KZN","OFFICIAL_N":"Ndwedwe","FOMERLY_KN":"","ALSO_KNOWN":"","COURT_TYPE":"Magistrate Court","COURT_TY_1":"MC","SMALLCLAIM":"Yes","EQUALITY_C":"Yes","STREET_ADR":"Ndwe Court House, Main Road","TOWN":"Ndwedwe","MUNICIPALI":"Ndwedwe Local Municipality","DISTRICT":"iLembe","GPS_EAST":"30.9364","GPS_SOUTH":"-29.5156"}},
{"type":"Feature","geometry":{"type":"Point","coordinates":[31.38972,-27.83246,0]},"properties":{"name":"Ngome Periodical Court","description":"","OBJECTID":"360","PROVINCE":"KZN","OFFICIAL_N":"Ngome","FOMERLY_KN":"","ALSO_KNOWN":"","COURT_TYPE":"Periodical Court","COURT_TY_1":"PC","SMALLCLAIM":"No","EQUALITY_C":"No","STREET_ADR":"Main Road","TOWN":"Nongoma","MUNICIPALI":"Umvoti Local Municipality","DISTRICT":"uMzinyathi","GPS_EAST":"31.3897","GPS_SOUTH":"-27.8325"}},
{"type":"Feature","geometry":{"type":"Point","coordinates":[31.86479,-28.77398,0]},"properties":{"name":"Ngwelezane Branch Court","description":"","OBJECTID":"347","PROVINCE":"KZN","OFFICIAL_N":"Ngwelezane","FOMERLY_KN":"","ALSO_KNOWN":"","COURT_TYPE":"Branch Court","COURT_TY_1":"BC","SMALLCLAIM":"No","EQUALITY_C":"No","STREET_ADR":"Ngwelezana Road","TOWN":"Enseleni","MUNICIPALI":"uMhlathuze Local Municipality","DISTRICT":"uThungulu","GPS_EAST":"31.8648","GPS_SOUTH":"-28.774"}},
{"type":"Feature","geometry":{"type":"Point","coordinates":[31.0878,-28.62081,0]},"properties":{"name":"Nkandla Magistrate Court","description":"","OBJECTID":"326","PROVINCE":"KZN","OFFICIAL_N":"Nkandla","FOMERLY_KN":"","ALSO_KNOWN":"","COURT_TYPE":"Magistrate Court","COURT_TY_1":"MC","SMALLCLAIM":"Yes","EQUALITY_C":"Yes","STREET_ADR":"Lot 208 Ndlangubo Street","TOWN":"Nkandla","MUNICIPALI":"Nkandla Local Municipality","DISTRICT":"uThungulu","GPS_EAST":"31.0878","GPS_SOUTH":"-28.6208"}},
{"type":"Feature","geometry":{"type":"Point","coordinates":[31.64644,-27.89943,0]},"properties":{"name":"Nongoma Magistrate Court","description":"","OBJECTID":"328","PROVINCE":"KZN","OFFICIAL_N":"Nongoma","FOMERLY_KN":"","ALSO_KNOWN":"","COURT_TYPE":"Magistrate Court","COURT_TY_1":"MC","SMALLCLAIM":"Yes","EQUALITY_C":"Yes","STREET_ADR":"Lot 96 Main Street,","TOWN":"Nongoma","MUNICIPALI":"Nongoma Local Municipality","DISTRICT":"Zululand","GPS_EAST":"31.6464","GPS_SOUTH":"-27.8994"}},
{"type":"Feature","geometry":{"type":"Point","coordinates":[30.67807,-28.21413,0]},"properties":{"name":"Nqutu Magistrate Court","description":"","OBJECTID":"329","PROVINCE":"KZN","OFFICIAL_N":"Nqutu","FOMERLY_KN":"","ALSO_KNOWN":"","COURT_TYPE":"Magistrate Court","COURT_TY_1":"MC","SMALLCLAIM":"Yes","EQUALITY_C":"Yes","STREET_ADR":"Lot 69 Babanango Road","TOWN":"Nqutu","MUNICIPALI":"Nqutu Local Municipality","DISTRICT":"uMzinyathi","GPS_EAST":"30.6781","GPS_SOUTH":"-28.2141"}},
{"type":"Feature","geometry":{"type":"Point","coordinates":[30.85618,-30.00026,0]},"properties":{"name":"Nsimbini Branch Court","description":"","OBJECTID":"276","PROVINCE":"KZN","OFFICIAL_N":"Nsimbini","FOMERLY_KN":"","ALSO_KNOWN":"","COURT_TYPE":"Branch Court","COURT_TY_1":"BC","SMALLCLAIM":"No","EQUALITY_C":"No","STREET_ADR":"Nsimbini Reserve","TOWN":"Nsimbini","MUNICIPALI":"eThekwini Metropolitan Municipality","DISTRICT":"eThekwini","GPS_EAST":"30.8562","GPS_SOUTH":"-30.0003"}},
{"type":"Feature","geometry":{"type":"Point","coordinates":[30.94316,-29.37684,0]},"properties":{"name":"Nsuze Periodical Court","description":"","OBJECTID":"315","PROVINCE":"KZN","OFFICIAL_N":"Nsuze","FOMERLY_KN":"","ALSO_KNOWN":"","COURT_TYPE":"Periodical Court","COURT_TY_1":"PC","SMALLCLAIM":"No","EQUALITY_C":"No","STREET_ADR":"Next to Lukhasa secondary School","TOWN":"Nsuze","MUNICIPALI":"Ndwedwe Local Municipality","DISTRICT":"iLembe","GPS_EAST":"30.9432","GPS_SOUTH":"-29.3768"}},
{"type":"Feature","geometry":{"type":"Point","coordinates":[31.020305,-29.785697,0]},"properties":{"name":"Ntuzuma Magistrate Court","description":"","OBJECTID":"286","PROVINCE":"KZN","OFFICIAL_N":"Ntuzuma","FOMERLY_KN":"","ALSO_KNOWN":"","COURT_TYPE":"Magistrate Court","COURT_TY_1":"MC","SMALLCLAIM":"Yes","EQUALITY_C":"Yes","STREET_ADR":"2 Dalmany Road","TOWN":"Ntuzuma","MUNICIPALI":"eThekwini Municipality Metropolitan","DISTRICT":"eThekwini","GPS_EAST":"31.0203","GPS_SOUTH":"-29.7857"}},
{"type":"Feature","geometry":{"type":"Point","coordinates":[30.81754,-27.42383,0]},"properties":{"name":"Paulpietersburg Magistrate Court","description":"","OBJECTID":"264","PROVINCE":"KZN","OFFICIAL_N":"Paulpietersburg","FOMERLY_KN":"","ALSO_KNOWN":"","COURT_TYPE":"Magistrate Court","COURT_TY_1":"MC","SMALLCLAIM":"Yes","EQUALITY_C":"Yes","STREET_ADR":"33 Kruger Street","TOWN":"Paulpietersburg","MUNICIPALI":"eDumbe Local Municipality","DISTRICT":"Zululand","GPS_EAST":"30.8175","GPS_SOUTH":"-27.4238"}},
{"type":"Feature","geometry":{"type":"Point","coordinates":[30.379711,-29.6021078,0]},"properties":{"name":"Pietermaritzburg Magistrate Court","description":"","OBJECTID":"311","PROVINCE":"KZN","OFFICIAL_N":"Pietermaritzburg","FOMERLY_KN":"","ALSO_KNOWN":"","COURT_TYPE":"Magistrate Court","COURT_TY_1":"MC","SMALLCLAIM":"Yes","EQUALITY_C":"Yes","STREET_ADR":"c/o Church &amp; Otto Street","TOWN":"Pietermaritzburg","MUNICIPALI":"Msunduzi Local Municipality","DISTRICT":"uMgungundlovu","GPS_EAST":"30.3797","GPS_SOUTH":"-29.5997"}},
{"type":"Feature","geometry":{"type":"Point","coordinates":[31.00731,-29.70091,0]},"properties":{"name":"Phoenix Branch Court","description":"","OBJECTID":"277","PROVINCE":"KZN","OFFICIAL_N":"Phoenix","FOMERLY_KN":"","ALSO_KNOWN":"","COURT_TYPE":"Branch Court","COURT_TY_1":"BC","SMALLCLAIM":"No","EQUALITY_C":"No","STREET_ADR":"Cnr Phoenix Highway &amp;Pegasus Drive","TOWN":"Phoenix","MUNICIPALI":"eThekwini Metropolitan Municipality","DISTRICT":"eThekwini","GPS_EAST":"31.0073","GPS_SOUTH":"-29.7009"}},
{"type":"Feature","geometry":{"type":"Point","coordinates":[30.15289,-30.42555,0]},"properties":{"name":"Phungashe Branch Court","description":"","OBJECTID":"361","PROVINCE":"KZN","OFFICIAL_N":"Phungashe","FOMERLY_KN":"","ALSO_KNOWN":"","COURT_TYPE":"Branch Court","COURT_TY_1":"BC","SMALLCLAIM":"No","EQUALITY_C":"No","STREET_ADR":"Luphepheni Location ST Faiths Road","TOWN":"Highflats","MUNICIPALI":"Umzumbe Local Municipality","DISTRICT":"Ugu","GPS_EAST":"30.1529","GPS_SOUTH":"-30.4256"}},
{"type":"Feature","geometry":{"type":"Point","coordinates":[30.33356,-29.64589,0]},"properties":{"name":"Plessislaer Branch Court","description":"","OBJECTID":"334","PROVINCE":"KZN","OFFICIAL_N":"Plessislaer","FOMERLY_KN":"","ALSO_KNOWN":"","COURT_TYPE":"Branch Court","COURT_TY_1":"BC","SMALLCLAIM":"No","EQUALITY_C":"No","STREET_ADR":"Old Main Road","TOWN":"Plessislaer","MUNICIPALI":"The Msunduzi Local Municipality","DISTRICT":"Umgungundlovu","GPS_EAST":"30.3336","GPS_SOUTH":"-29.6459"}},
{"type":"Feature","geometry":{"type":"Point","coordinates":[30.86096,-29.81865,0]},"properties":{"name":"Pinetown Magistrate Court","description":"","OBJECTID":"280","PROVINCE":"KZN","OFFICIAL_N":"Pinetown","FOMERLY_KN":"","ALSO_KNOWN":"","COURT_TYPE":"Magistrate Court","COURT_TY_1":"MC","SMALLCLAIM":"Yes","EQUALITY_C":"Yes","STREET_ADR":"5 Chancery Lane","TOWN":"Pinetown","MUNICIPALI":"eThekwini Metropolitan Municipality","DISTRICT":"eThekwini","GPS_EAST":"30.861","GPS_SOUTH":"-29.8187"}},
{"type":"Feature","geometry":{"type":"Point","coordinates":[31.0404685,-29.8680054,0]},"properties":{"name":"Point Branch Court","description":"","OBJECTID":"278","PROVINCE":"KZN","OFFICIAL_N":"Point","FOMERLY_KN":"","ALSO_KNOWN":"","COURT_TYPE":"Branch Court","COURT_TY_1":"BC","SMALLCLAIM":"No","EQUALITY_C":"No","STREET_ADR":"99 Shepstone Street, Point, Durban, 4001","TOWN":"Point","MUNICIPALI":"eThekwini Metropolitan Municipality","DISTRICT":"eThekwini","GPS_EAST":"31.04048","GPS_SOUTH":"-29.8616"}},
{"type":"Feature","geometry":{"type":"Point","coordinates":[30.42193,-28.55156,0]},"properties":{"name":"Pomeroy Periodical Court","description":"","OBJECTID":"310","PROVINCE":"KZN","OFFICIAL_N":"Pomeroy","FOMERLY_KN":"","ALSO_KNOWN":"","COURT_TYPE":"Periodical Court","COURT_TY_1":"PC","SMALLCLAIM":"No","EQUALITY_C":"No","STREET_ADR":"7 Polinghome Str,","TOWN":"Pomeroy","MUNICIPALI":"Msinga Local Municipality","DISTRICT":"uMzinyathi","GPS_EAST":"30.4219","GPS_SOUTH":"-28.5516"}},
{"type":"Feature","geometry":{"type":"Point","coordinates":[31.579989,-27.341724,0]},"properties":{"name":"Pongola Magistrate Court","description":"","OBJECTID":"364","PROVINCE":"KZN","OFFICIAL_N":"Pongola","FOMERLY_KN":"","ALSO_KNOWN":"","COURT_TYPE":"Magistrate Court","COURT_TY_1":"MC","SMALLCLAIM":"Yes","EQUALITY_C":"Yes","STREET_ADR":"B219 Ncotshane Location, Pongola","TOWN":"Pongola","MUNICIPALI":"uPhongolo Local Municipality","DISTRICT":"Zululand","GPS_EAST":"31.58","GPS_SOUTH":"-27.3417"}},
{"type":"Feature","geometry":{"type":"Point","coordinates":[30.44789,-30.7346,0]},"properties":{"name":"Port Shepstone Magistrate Court","description":"","OBJECTID":"291","PROVINCE":"KZN","OFFICIAL_N":"Port Shepstone","FOMERLY_KN":"","ALSO_KNOWN":"","COURT_TYPE":"Magistrate Court","COURT_TY_1":"MC","SMALLCLAIM":"Yes","EQUALITY_C":"Yes","STREET_ADR":"5 Court House Road,","TOWN":"Port Shepstone","MUNICIPALI":"Hibiscus Coast Local Municipality","DISTRICT":"Ugu","GPS_EAST":"30.4479","GPS_SOUTH":"-30.7346"}},
{"type":"Feature","geometry":{"type":"Point","coordinates":[30.89735,-28.64475,0]},"properties":{"name":"Qudeni Periodical Court","description":"","OBJECTID":"327","PROVINCE":"KZN","OFFICIAL_N":"Qudeni","FOMERLY_KN":"","ALSO_KNOWN":"","COURT_TYPE":"Periodical Court","COURT_TY_1":"PC","SMALLCLAIM":"No","EQUALITY_C":"No","STREET_ADR":"Qudeni Main Road","TOWN":"Qudeni","MUNICIPALI":"Nkandla Local Municipality","DISTRICT":"uThungulu","GPS_EAST":"30.8973","GPS_SOUTH":"-28.6447"}},
{"type":"Feature","geometry":{"type":"Point","coordinates":[30.35163,-30.88216,0]},"properties":{"name":"Ramsgate Branch Court","description":"","OBJECTID":"292","PROVINCE":"KZN","OFFICIAL_N":"Ramsgate","FOMERLY_KN":"","ALSO_KNOWN":"","COURT_TYPE":"Branch Court","COURT_TY_1":"BC","SMALLCLAIM":"No","EQUALITY_C":"No","STREET_ADR":"c/o Marine Drive &amp; Alfred Road","TOWN":"Ramsgate","MUNICIPALI":"Hibiscus Coast Local Municipality","DISTRICT":"Ugu","GPS_EAST":"30.3516","GPS_SOUTH":"-30.8822"}},
{"type":"Feature","geometry":{"type":"Point","coordinates":[32.048,-28.7383,0]},"properties":{"name":"Richards Bay Branch Court","description":"","OBJECTID":"348","PROVINCE":"KZN","OFFICIAL_N":"Richards Bay","FOMERLY_KN":"","ALSO_KNOWN":"","COURT_TYPE":"Branch Court","COURT_TY_1":"BC","SMALLCLAIM":"No","EQUALITY_C":"No","STREET_ADR":"No 2 Pasetta Parade","TOWN":"Richards Bay","MUNICIPALI":"uMhlathuze Local Municipality","DISTRICT":"uThungulu","GPS_EAST":"32.048","GPS_SOUTH":"-28.7383"}},
{"type":"Feature","geometry":{"type":"Point","coordinates":[30.26988,-29.87269,0]},"properties":{"name":"Richmond [KZN] Magistrate Court","description":"","OBJECTID":"333","PROVINCE":"KZN","OFFICIAL_N":"Richmond [KZN]","FOMERLY_KN":"","ALSO_KNOWN":"","COURT_TYPE":"Magistrate Court","COURT_TY_1":"MC","SMALLCLAIM":"Yes","EQUALITY_C":"Yes","STREET_ADR":"36 Chilley Street,","TOWN":"Richmond [KZN]","MUNICIPALI":"Richmond Local Municipality","DISTRICT":"uMgungundlovu","GPS_EAST":"30.2699","GPS_SOUTH":"-29.8727"}},
{"type":"Feature","geometry":{"type":"Point","coordinates":[30.49062,-30.27388,0]},"properties":{"name":"Sawoti Periodical Court","description":"","OBJECTID":"339","PROVINCE":"KZN","OFFICIAL_N":"Sawoti","FOMERLY_KN":"","ALSO_KNOWN":"","COURT_TYPE":"Periodical Court","COURT_TY_1":"PC","SMALLCLAIM":"No","EQUALITY_C":"No","STREET_ADR":"R612, Ixopo Main Road","TOWN":"Sawoti","MUNICIPALI":"uMdoni Local Municipality","DISTRICT":"Ugu","GPS_EAST":"30.4906","GPS_SOUTH":"-30.2739"}},
{"type":"Feature","geometry":{"type":"Point","coordinates":[30.75625,-30.28747,0]},"properties":{"name":"Scottburgh Magistrate Court","description":"","OBJECTID":"338","PROVINCE":"KZN","OFFICIAL_N":"Scottburgh","FOMERLY_KN":"","ALSO_KNOWN":"","COURT_TYPE":"Magistrate Court","COURT_TY_1":"MC","SMALLCLAIM":"Yes","EQUALITY_C":"Yes","STREET_ADR":"Cnr Airth &amp; Scott Street","TOWN":"Scottburgh","MUNICIPALI":"uMdoni Local Municipality","DISTRICT":"Ugu","GPS_EAST":"30.7563","GPS_SOUTH":"-30.2875"}},
{"type":"Feature","geometry":{"type":"Point","coordinates":[30.577282,-30.570592,0]},"properties":{"name":"Turton Branch Court","description":"","OBJECTID":"293","PROVINCE":"KZN","OFFICIAL_N":"Turton","FOMERLY_KN":"","ALSO_KNOWN":"","COURT_TYPE":"Branch Court","COURT_TY_1":"BC","SMALLCLAIM":"No","EQUALITY_C":"No","STREET_ADR":"Emzumbe Location,","TOWN":"Hibberdene","MUNICIPALI":"Hibiscus Coast Local Municipality","DISTRICT":"Ugu","GPS_EAST":"30.5773","GPS_SOUTH":"-30.5706"}},
{"type":"Feature","geometry":{"type":"Point","coordinates":[32.08435,-27.56635,0]},"properties":{"name":"Ubombo Magistrate Court","description":"","OBJECTID":"297","PROVINCE":"KZN","OFFICIAL_N":"Ubombo","FOMERLY_KN":"","ALSO_KNOWN":"","COURT_TYPE":"Magistrate Court","COURT_TY_1":"MC","SMALLCLAIM":"Yes","EQUALITY_C":"Yes","STREET_ADR":"Lot 15 Main Road","TOWN":"Ubombo","MUNICIPALI":"Jozini Local Municipality","DISTRICT":"Umkhayakude","GPS_EAST":"32.0844","GPS_SOUTH":"-27.5663"}},
{"type":"Feature","geometry":{"type":"Point","coordinates":[30.70279,-29.98549,0]},"properties":{"name":"Umbumbulu Magistrate Court","description":"","OBJECTID":"272","PROVINCE":"KZN","OFFICIAL_N":"Umbumbulu","FOMERLY_KN":"","ALSO_KNOWN":"","COURT_TYPE":"Magistrate Court","COURT_TY_1":"MC","SMALLCLAIM":"Yes","EQUALITY_C":"Yes","STREET_ADR":"Main Road","TOWN":"Umbumbulu","MUNICIPALI":"eThekwini Metropolitan Municipality","DISTRICT":"eThekwini","GPS_EAST":"30.7028","GPS_SOUTH":"-29.9855"}},
{"type":"Feature","geometry":{"type":"Point","coordinates":[31.21958,-29.46886,0]},"properties":{"name":"Umhlali Periodical Court","description":"","OBJECTID":"300","PROVINCE":"KZN","OFFICIAL_N":"Umhlali","FOMERLY_KN":"","ALSO_KNOWN":"","COURT_TYPE":"Periodical Court","COURT_TY_1":"PC","SMALLCLAIM":"No","EQUALITY_C":"No","STREET_ADR":"Main Road","TOWN":"Umhlali","MUNICIPALI":"KwaDukuza Local Municipality","DISTRICT":"iLembe","GPS_EAST":"31.2196","GPS_SOUTH":"-29.4689"}},
{"type":"Feature","geometry":{"type":"Point","coordinates":[29.94012,-30.25849,0]},"properties":{"name":"Umzimkulu Magistrate Court","description":"","OBJECTID":"256","PROVINCE":"KZN","OFFICIAL_N":"Umzimkulu","FOMERLY_KN":"","ALSO_KNOWN":"","COURT_TYPE":"Magistrate Court","COURT_TY_1":"MC","SMALLCLAIM":"Yes","EQUALITY_C":"Yes","STREET_ADR":"Hospital Street,","TOWN":"Umzimkulu","MUNICIPALI":"Umzimkhulu Local Municipality","DISTRICT":"Sisonke","GPS_EAST":"29.9401","GPS_SOUTH":"-30.2585"}},
{"type":"Feature","geometry":{"type":"Point","coordinates":[30.67261,-30.30875,0]},"properties":{"name":"Umzinto Periodical Court","description":"","OBJECTID":"341","PROVINCE":"KZN","OFFICIAL_N":"Umzinto","FOMERLY_KN":"","ALSO_KNOWN":"","COURT_TYPE":"Periodical Court","COURT_TY_1":"PC","SMALLCLAIM":"No","EQUALITY_C":"No","STREET_ADR":"102 Court Road","TOWN":"Umzinto","MUNICIPALI":"uMdoni Local Municipality","DISTRICT":"Ugu","GPS_EAST":"30.6726","GPS_SOUTH":"-30.3087"}},
{"type":"Feature","geometry":{"type":"Point","coordinates":[30.31998,-27.65597,0]},"properties":{"name":"Utrecht Magistrate Court","description":"","OBJECTID":"265","PROVINCE":"KZN","OFFICIAL_N":"Utrecht","FOMERLY_KN":"","ALSO_KNOWN":"","COURT_TYPE":"Magistrate Court","COURT_TY_1":"MC","SMALLCLAIM":"Yes","EQUALITY_C":"Yes","STREET_ADR":"51 Voor Stree","TOWN":"Utrecht","MUNICIPALI":"eMadlangeni Local Municipality","DISTRICT":"Amajuba","GPS_EAST":"30.32","GPS_SOUTH":"-27.656"}},
{"type":"Feature","geometry":{"type":"Point","coordinates":[31.0489,-29.64211,0]},"properties":{"name":"Verulam Magistrate Court","description":"","OBJECTID":"279","PROVINCE":"KZN","OFFICIAL_N":"Verulam","FOMERLY_KN":"","ALSO_KNOWN":"","COURT_TYPE":"Magistrate Court","COURT_TY_1":"MC","SMALLCLAIM":"Yes","EQUALITY_C":"Yes","STREET_ADR":"52 Moss Street","TOWN":"Verulam","MUNICIPALI":"eThekwini Metropolitan Municipality","DISTRICT":"eThekwini","GPS_EAST":"31.0489","GPS_SOUTH":"-29.6421"}},
{"type":"Feature","geometry":{"type":"Point","coordinates":[30.79539,-27.76772,0]},"properties":{"name":"Vryheid Magistrate Court","description":"","OBJECTID":"262","PROVINCE":"KZN","OFFICIAL_N":"Vryheid","FOMERLY_KN":"","ALSO_KNOWN":"","COURT_TYPE":"Magistrate Court","COURT_TY_1":"MC","SMALLCLAIM":"Yes","EQUALITY_C":"Yes","STREET_ADR":"212 Church Street","TOWN":"Vryheid","MUNICIPALI":"Abaqulusi Local Municipality","DISTRICT":"Zululand","GPS_EAST":"30.7954","GPS_SOUTH":"-27.7677"}},
{"type":"Feature","geometry":{"type":"Point","coordinates":[30.09996,-28.3135,0]},"properties":{"name":"Wasbank Periodical Court","description":"","OBJECTID":"271","PROVINCE":"KZN","OFFICIAL_N":"Wasbank","FOMERLY_KN":"","ALSO_KNOWN":"","COURT_TYPE":"Periodical Court","COURT_TY_1":"PC","SMALLCLAIM":"No","EQUALITY_C":"No","STREET_ADR":"Rademeyer Road","TOWN":"Wasbank","MUNICIPALI":"Endumeni Local Municipality","DISTRICT":"uMzinyathi","GPS_EAST":"30.1","GPS_SOUTH":"-28.3135"}},
{"type":"Feature","geometry":{"type":"Point","coordinates":[30.08513,-28.85384,0]},"properties":{"name":"Weenen Magistrate Court","description":"","OBJECTID":"355","PROVINCE":"KZN","OFFICIAL_N":"Weenen","FOMERLY_KN":"","ALSO_KNOWN":"","COURT_TYPE":"Magistrate Court","COURT_TY_1":"MC","SMALLCLAIM":"Yes","EQUALITY_C":"No","STREET_ADR":"Retief Street,","TOWN":"Weenen","MUNICIPALI":"Umtshezi Local Municipality","DISTRICT":"uThukela","GPS_EAST":"30.0851","GPS_SOUTH":"-28.8538"}},
{"type":"Feature","geometry":{"type":"Point","coordinates":[29.789471,-29.04467,0]},"properties":{"name":"Wembesi Branch Court","description":"","OBJECTID":"322","PROVINCE":"KZN","OFFICIAL_N":"Wembesi","FOMERLY_KN":"","ALSO_KNOWN":"","COURT_TYPE":"Branch Court","COURT_TY_1":"BC","SMALLCLAIM":"No","EQUALITY_C":"No","STREET_ADR":"SAPS Wembesi","TOWN":"Wembesi","MUNICIPALI":"New Municipal to be proclaimed","DISTRICT":"uThukela","GPS_EAST":"29.7895","GPS_SOUTH":"-29.0447"}},
{"type":"Feature","geometry":{"type":"Point","coordinates":[30.98109,-29.94245,0]},"properties":{"name":"Wentworth Branch Court","description":"","OBJECTID":"273","PROVINCE":"KZN","OFFICIAL_N":"Wentworth","FOMERLY_KN":"","ALSO_KNOWN":"","COURT_TYPE":"Branch Court","COURT_TY_1":"BC","SMALLCLAIM":"No","EQUALITY_C":"No","STREET_ADR":"Austerville Drive,","TOWN":"Wentworth","MUNICIPALI":"eThekwini Metropolitan Municipality","DISTRICT":"eThekwini","GPS_EAST":"30.9811","GPS_SOUTH":"-29.9425"}},
{"type":"Feature","geometry":{"type":"Point","coordinates":[29.5401,-28.81438,0]},"properties":{"name":"Winterton Periodical Court","description":"","OBJECTID":"332","PROVINCE":"KZN","OFFICIAL_N":"Winterton","FOMERLY_KN":"","ALSO_KNOWN":"","COURT_TYPE":"Periodical Court","COURT_TY_1":"PC","SMALLCLAIM":"No","EQUALITY_C":"No","STREET_ADR":"1 President Str,","TOWN":"Winterton","MUNICIPALI":"Okhahlamba Local Municipality","DISTRICT":"uThukela","GPS_EAST":"29.5401","GPS_SOUTH":"-28.8144"}}
]}
