{"type":"FeatureCollection", "features":[
{"type":"Feature","geometry":{"type":"Point","coordinates":[29.10505,-22.68185,0]},"properties":{"name":"Alldays Branch Court","description":"PROVINCE: LP<br>MagisterialDistrict: Blouberg [Blouberg]<br>PreviouslyKnownAs: <br>AlsoKnownAs: <br>SMALLCLAIM: No<br>EQUALITY_C: No<br>Tel: 015 516 0181/2/3<br>Fax: 015 516 0044<br>Postal: Private Bag X2403, Louis Trichardt 0920<br>STREET_ADR: Rooibos Street,<br>TOWN: Alidays<br>MUNICIPALI: Blouberg Local Municipality<br>DISTRICT: Capricorn<br>GPS_EAST: 29.10505<br>GPS_SOUTH: -22.68185","PROVINCE":"LP","MagisterialDistrict":"Blouberg [Blouberg]","PreviouslyKnownAs":"","AlsoKnownAs":"","SMALLCLAIM":"No","EQUALITY_C":"No","Tel":"015 516 0181/2/3","Fax":"015 516 0044","Postal":"Private Bag X2403, Louis Trichardt 0920","STREET_ADR":"Rooibos Street,","TOWN":"Alidays","MUNICIPALI":"Blouberg Local Municipality","DISTRICT":"Capricorn","GPS_EAST":"29.10505","GPS_SOUTH":"-22.68185"}},
{"type":"Feature","geometry":{"type":"Point","coordinates":[29.80374,-23.3178,0]},"properties":{"name":"Bandelierkop Periodical Court","description":"PROVINCE: LP<br>MagisterialDistrict: Makhado [Louis Trichardt]<br>PreviouslyKnownAs: <br>AlsoKnownAs: <br>SMALLCLAIM: No<br>EQUALITY_C: No<br>Tel: 015 516 0181/2/3<br>Fax: 015 516 0044<br>Postal: Private Bag X2403, Louis Trichardt 0920<br>STREET_ADR: SAPS Bandelierkop<br>TOWN: Bandelierkop<br>MUNICIPALI: Makhado Local Municipality<br>DISTRICT: Makhado<br>GPS_EAST: 29.80374<br>GPS_SOUTH: -23.3178","PROVINCE":"LP","MagisterialDistrict":"Makhado [Louis Trichardt]","PreviouslyKnownAs":"","AlsoKnownAs":"","SMALLCLAIM":"No","EQUALITY_C":"No","Tel":"015 516 0181/2/3","Fax":"015 516 0044","Postal":"Private Bag X2403, Louis Trichardt 0920","STREET_ADR":"SAPS Bandelierkop","TOWN":"Bandelierkop","MUNICIPALI":"Makhado Local Municipality","DISTRICT":"Makhado","GPS_EAST":"29.80374","GPS_SOUTH":"-23.3178"}},
{"type":"Feature","geometry":{"type":"Point","coordinates":[28.29105,-24.88281,0]},"properties":{"name":"Bela-Bela Magistrate Court","description":"PROVINCE: LP<br>MagisterialDistrict: Bela-Bela [Bela-Bela]<br>PreviouslyKnownAs: Warmbaths<br>AlsoKnownAs: <br>SMALLCLAIM: Yes<br>EQUALITY_C: Yes<br>Tel: 014 736 2231<br>Fax: 014 736 5210/ 0865075648<br>Postal: Private Bag X1617, Bela-Bela 0480<br>STREET_ADR: <br>22 Moffat (c/o Moffat & Pretoria) Street,<br>TOWN: Bela-Bela<br>MUNICIPALI: Bela-Bela Local Municipality<br>DISTRICT: Waterberg<br>GPS_EAST: 28.29105<br>GPS_SOUTH: -24.88281","PROVINCE":"LP","MagisterialDistrict":"Bela-Bela [Bela-Bela]","PreviouslyKnownAs":"Warmbaths","AlsoKnownAs":"","SMALLCLAIM":"Yes","EQUALITY_C":"Yes","Tel":"014 736 2231","Fax":"014 736 5210/ 0865075648","Postal":"Private Bag X1617, Bela-Bela 0480","STREET_ADR":"\n22 Moffat (c/o Moffat & Pretoria) Street,","TOWN":"Bela-Bela","MUNICIPALI":"Bela-Bela Local Municipality","DISTRICT":"Waterberg","GPS_EAST":"28.29105","GPS_SOUTH":"-24.88281"}},
{"type":"Feature","geometry":{"type":"Point","coordinates":[27.69397,-24.12652,0]},"properties":{"name":"Bulgerivier Periodical Court","description":"PROVINCE: LP<br>MagisterialDistrict: Lephalale [Lephalale]<br>PreviouslyKnownAs: <br>AlsoKnownAs: <br>SMALLCLAIM: No<br>EQUALITY_C: No<br>Tel: 014 763 2178<br>Fax: 014 763 3840<br>Postal: Private Bag X1011, Modimolle 0510<br>STREET_ADR: Near SAPS Bulgerivier<br>TOWN: Bulgerivier<br>MUNICIPALI: Lephalale Local Municipality<br>DISTRICT: Waterberg<br>GPS_EAST: 27.69397<br>GPS_SOUTH: -24.12652","PROVINCE":"LP","MagisterialDistrict":"Lephalale [Lephalale]","PreviouslyKnownAs":"","AlsoKnownAs":"","SMALLCLAIM":"No","EQUALITY_C":"No","Tel":"014 763 2178","Fax":"014 763 3840","Postal":"Private Bag X1011, Modimolle 0510","STREET_ADR":"Near SAPS Bulgerivier","TOWN":"Bulgerivier","MUNICIPALI":"Lephalale Local Municipality","DISTRICT":"Waterberg","GPS_EAST":"27.69397","GPS_SOUTH":"-24.12652"}},
{"type":"Feature","geometry":{"type":"Point","coordinates":[30.3297,-24.67995,0]},"properties":{"name":"Burgersfort Branch Court","description":"PROVINCE: LP<br>MagisterialDistrict: Tubatse [Burgersfort]<br>PreviouslyKnownAs: <br>AlsoKnownAs: <br>SMALLCLAIM: No<br>EQUALITY_C: No<br>Tel: 013 235 2325/6/7<br>Fax: 013 235 3411<br>Postal: Private Bag X1085, Mashishing 1120<br>STREET_ADR: 7 Justice Street,<br>TOWN: Burgersfort<br>MUNICIPALI: Greater Tubatse Local Municipality<br>DISTRICT: Sekhukhune<br>GPS_EAST: 30.3297<br>GPS_SOUTH: -24.67995","PROVINCE":"LP","MagisterialDistrict":"Tubatse [Burgersfort]","PreviouslyKnownAs":"","AlsoKnownAs":"","SMALLCLAIM":"No","EQUALITY_C":"No","Tel":"013 235 2325/6/7","Fax":"013 235 3411","Postal":"Private Bag X1085, Mashishing 1120","STREET_ADR":"7 Justice Street,","TOWN":"Burgersfort","MUNICIPALI":"Greater Tubatse Local Municipality","DISTRICT":"Sekhukhune","GPS_EAST":"30.3297","GPS_SOUTH":"-24.67995"}},
{"type":"Feature","geometry":{"type":"Point","coordinates":[26.9198,-23.97596,0]},"properties":{"name":"Cumberland Periodical Court","description":"PROVINCE: LP<br>MagisterialDistrict: Thabazimbi [Thabazimbi]<br>PreviouslyKnownAs: <br>AlsoKnownAs: <br>SMALLCLAIM: No<br>EQUALITY_C: No<br>Tel: 014 777 1543<br>Fax: 014 772  2523<br>Postal: Private Bag X535, Thabazimbi 0380<br>STREET_ADR: Farm Station near SAPS Cumberlad<br>TOWN: Cumberland<br>MUNICIPALI: Thabazimbi Local Municipality<br>DISTRICT: Waterberg<br>GPS_EAST: 26.9198<br>GPS_SOUTH: -23.97596","PROVINCE":"LP","MagisterialDistrict":"Thabazimbi [Thabazimbi]","PreviouslyKnownAs":"","AlsoKnownAs":"","SMALLCLAIM":"No","EQUALITY_C":"No","Tel":"014 777 1543","Fax":"014 772  2523","Postal":"Private Bag X535, Thabazimbi 0380","STREET_ADR":"Farm Station near SAPS Cumberlad","TOWN":"Cumberland","MUNICIPALI":"Thabazimbi Local Municipality","DISTRICT":"Waterberg","GPS_EAST":"26.9198","GPS_SOUTH":"-23.97596"}},
{"type":"Feature","geometry":{"type":"Point","coordinates":[28.16088,-24.06071,0]},"properties":{"name":"Dorset Periodical Court","description":"PROVINCE: LP<br>MagisterialDistrict: Modimolle [Modimolle]<br>PreviouslyKnownAs: <br>AlsoKnownAs: <br>SMALLCLAIM: No<br>EQUALITY_C: No<br>Tel: 014 717 5316<br>Fax: 014 717 5369<br>Postal: Private Bag X1011, Modimolle 0510<br>STREET_ADR: Off the R33<br>TOWN: Dorset<br>MUNICIPALI: Lephalale Local Municipality<br>DISTRICT: Waterberg<br>GPS_EAST: 28.16088<br>GPS_SOUTH: -24.06071","PROVINCE":"LP","MagisterialDistrict":"Modimolle [Modimolle]","PreviouslyKnownAs":"","AlsoKnownAs":"","SMALLCLAIM":"No","EQUALITY_C":"No","Tel":"014 717 5316","Fax":"014 717 5369","Postal":"Private Bag X1011, Modimolle 0510","STREET_ADR":"Off the R33","TOWN":"Dorset","MUNICIPALI":"Lephalale Local Municipality","DISTRICT":"Waterberg","GPS_EAST":"28.16088","GPS_SOUTH":"-24.06071"}},
{"type":"Feature","geometry":{"type":"Point","coordinates":[26.80745,-24.72723,0]},"properties":{"name":"Dwaalboom Periodical Court","description":"PROVINCE: LP<br>MagisterialDistrict: Thabazimbi [Thabazimbi]<br>PreviouslyKnownAs: <br>AlsoKnownAs: <br>SMALLCLAIM: No<br>EQUALITY_C: No<br>Tel: 014 777 1543<br>Fax: 014 772  2523<br>Postal: Private Bag X535, Thabazimbi 0380<br>STREET_ADR: Next to Police Station,<br>TOWN: Dwaalboom<br>MUNICIPALI: Thabazimbi Local Municipality<br>DISTRICT: Waterberg<br>GPS_EAST: 26.80745<br>GPS_SOUTH: -24.72723","PROVINCE":"LP","MagisterialDistrict":"Thabazimbi [Thabazimbi]","PreviouslyKnownAs":"","AlsoKnownAs":"","SMALLCLAIM":"No","EQUALITY_C":"No","Tel":"014 777 1543","Fax":"014 772  2523","Postal":"Private Bag X535, Thabazimbi 0380","STREET_ADR":"Next to Police Station,","TOWN":"Dwaalboom","MUNICIPALI":"Thabazimbi Local Municipality","DISTRICT":"Waterberg","GPS_EAST":"26.80745","GPS_SOUTH":"-24.72723"}},
{"type":"Feature","geometry":{"type":"Point","coordinates":[30.03808,-22.89556,0]},"properties":{"name":"Dzanani Magistrate Court","description":"PROVINCE: LP<br>MagisterialDistrict: Makhado [Dzanani]<br>PreviouslyKnownAs: <br>AlsoKnownAs: Setooni 208MT<br>SMALLCLAIM: Yes<br>EQUALITY_C: Yes<br>Tel: 015 970 4005<br>Fax: 015 970 4332<br>Postal: Private Bag X2427, Louis Trichardt 0920<br>STREET_ADR: Makhado Location, Road  D3669 [Hillside Street]<br>TOWN: Dzanani<br>MUNICIPALI: Makhado Local Municipality<br>DISTRICT: Makhado<br>GPS_EAST: 30.03808<br>GPS_SOUTH: -22.89556","PROVINCE":"LP","MagisterialDistrict":"Makhado [Dzanani]","PreviouslyKnownAs":"","AlsoKnownAs":"Setooni 208MT","SMALLCLAIM":"Yes","EQUALITY_C":"Yes","Tel":"015 970 4005","Fax":"015 970 4332","Postal":"Private Bag X2427, Louis Trichardt 0920","STREET_ADR":"Makhado Location, Road  D3669 [Hillside Street]","TOWN":"Dzanani","MUNICIPALI":"Makhado Local Municipality","DISTRICT":"Makhado","GPS_EAST":"30.03808","GPS_SOUTH":"-22.89556"}},
{"type":"Feature","geometry":{"type":"Point","coordinates":[30.70588,-23.30713,0]},"properties":{"name":"Dzumeri Periodical Court","description":"PROVINCE: LP<br>MagisterialDistrict: Giyani [Giyani] <br>PreviouslyKnownAs: <br>AlsoKnownAs: <br>SMALLCLAIM: No<br>EQUALITY_C: No<br>Tel: 015 812 3275<br>Fax: 015 812 0423<br>Postal: P/Bag x572 Giyani 0826<br>STREET_ADR: Dzumeri Tribal Council<br>TOWN: Dzumeri<br>MUNICIPALI: Greater Giyani Local Municipality<br>DISTRICT: Mopani<br>GPS_EAST: 30.70588<br>GPS_SOUTH: -23.30713","PROVINCE":"LP","MagisterialDistrict":"Giyani [Giyani] ","PreviouslyKnownAs":"","AlsoKnownAs":"","SMALLCLAIM":"No","EQUALITY_C":"No","Tel":"015 812 3275","Fax":"015 812 0423","Postal":"P/Bag x572 Giyani 0826","STREET_ADR":"Dzumeri Tribal Council","TOWN":"Dzumeri","MUNICIPALI":"Greater Giyani Local Municipality","DISTRICT":"Mopani","GPS_EAST":"30.70588","GPS_SOUTH":"-23.30713"}},
{"type":"Feature","geometry":{"type":"Point","coordinates":[30.07591,-23.15916,0]},"properties":{"name":"Elim Magistrate Court","description":"PROVINCE: LP<br>MagisterialDistrict: Makhado [Hlanganani]<br>PreviouslyKnownAs: Waterval<br>AlsoKnownAs: Hlanganani / Vongani<br>SMALLCLAIM: Yes<br>EQUALITY_C: Yes<br>Tel: 015 556 4091/4052<br>Fax: 015 556 4110<br>Postal: Private Bag X332, Elim Hospital  0960<br>STREET_ADR: Near Waterval SAPS<br>TOWN: Waterval<br>MUNICIPALI: Makhado Local Municipality<br>DISTRICT: Vhembe<br>GPS_EAST: 30.07591<br>GPS_SOUTH: -23.15916","PROVINCE":"LP","MagisterialDistrict":"Makhado [Hlanganani]","PreviouslyKnownAs":"Waterval","AlsoKnownAs":"Hlanganani / Vongani","SMALLCLAIM":"Yes","EQUALITY_C":"Yes","Tel":"015 556 4091/4052","Fax":"015 556 4110","Postal":"Private Bag X332, Elim Hospital  0960","STREET_ADR":"Near Waterval SAPS","TOWN":"Waterval","MUNICIPALI":"Makhado Local Municipality","DISTRICT":"Vhembe","GPS_EAST":"30.07591","GPS_SOUTH":"-23.15916"}},
{"type":"Feature","geometry":{"type":"Point","coordinates":[30.22234,-23.64425,0]},"properties":{"name":"Ga Kgapane Magistrate Court","description":"PROVINCE: LP<br>MagisterialDistrict: Letaba [Ga-Kgapane]<br>PreviouslyKnownAs: <br>AlsoKnownAs: Bolobedu<br>SMALLCLAIM: Yes<br>EQUALITY_C: Yes<br>Tel: 015 328 3002/ 3768/ 3814<br>Fax: 015 328 3002<br>Postal: Private Bag X701, Ga-Kgapane 0838<br>STREET_ADR: Next to Bolobedu SAPS<br>TOWN: Gaâ€Kgapane<br>MUNICIPALI: Greater Letaba Local Municipality<br>DISTRICT: Mopani<br>GPS_EAST: 30.22234<br>GPS_SOUTH: -23.64425","PROVINCE":"LP","MagisterialDistrict":"Letaba [Ga-Kgapane]","PreviouslyKnownAs":"","AlsoKnownAs":"Bolobedu","SMALLCLAIM":"Yes","EQUALITY_C":"Yes","Tel":"015 328 3002/ 3768/ 3814","Fax":"015 328 3002","Postal":"Private Bag X701, Ga-Kgapane 0838","STREET_ADR":"Next to Bolobedu SAPS","TOWN":"Gaâ€Kgapane","MUNICIPALI":"Greater Letaba Local Municipality","DISTRICT":"Mopani","GPS_EAST":"30.22234","GPS_SOUTH":"-23.64425"}},
{"type":"Feature","geometry":{"type":"Point","coordinates":[28.93737,-22.98094,0]},"properties":{"name":"Ga-Malebogo Periodical Court","description":"PROVINCE: LP<br>MagisterialDistrict: Tzaneen [Nkowankowa]<br>PreviouslyKnownAs: Malebogo<br>AlsoKnownAs: Kibi<br>SMALLCLAIM: No<br>EQUALITY_C: No<br>Tel: 015 505 3151/ 52<br>Fax: 015 505 3153<br>Postal: Private Bag X5001, Bochum 0790<br>STREET_ADR: SAPS Maleboho, Eldorado Village Raditshaba<br>TOWN: Malebogo<br>MUNICIPALI: Blouberg Local Municipality<br>DISTRICT: Capricon<br>GPS_EAST: 28.93737<br>GPS_SOUTH: -22.98094","PROVINCE":"LP","MagisterialDistrict":"Tzaneen [Nkowankowa]","PreviouslyKnownAs":"Malebogo","AlsoKnownAs":"Kibi","SMALLCLAIM":"No","EQUALITY_C":"No","Tel":"015 505 3151/ 52","Fax":"015 505 3153","Postal":"Private Bag X5001, Bochum 0790","STREET_ADR":"SAPS Maleboho, Eldorado Village Raditshaba","TOWN":"Malebogo","MUNICIPALI":"Blouberg Local Municipality","DISTRICT":"Capricon","GPS_EAST":"28.93737","GPS_SOUTH":"-22.98094"}},
{"type":"Feature","geometry":{"type":"Point","coordinates":[29.0319,-23.67473,0]},"properties":{"name":"Ga-Matlala Periodical Court","description":"PROVINCE: LP<br>MagisterialDistrict: Musina [Musina]<br>PreviouslyKnownAs: Matlala<br>AlsoKnownAs: <br>SMALLCLAIM: No<br>EQUALITY_C: No<br>Tel: 015 223 5112/ 6087/ 6335<br>Fax: 015 223 5101<br>Postal: Private Bag X4007, Seshego 0742<br>STREET_ADR: Next to SAPS Matlala<br>TOWN: Matlala<br>MUNICIPALI: Polokwane Local municopality<br>DISTRICT: Capricon<br>GPS_EAST: 29.0319<br>GPS_SOUTH: -23.67473","PROVINCE":"LP","MagisterialDistrict":"Musina [Musina]","PreviouslyKnownAs":"Matlala","AlsoKnownAs":"","SMALLCLAIM":"No","EQUALITY_C":"No","Tel":"015 223 5112/ 6087/ 6335","Fax":"015 223 5101","Postal":"Private Bag X4007, Seshego 0742","STREET_ADR":"Next to SAPS Matlala","TOWN":"Matlala","MUNICIPALI":"Polokwane Local municopality","DISTRICT":"Capricon","GPS_EAST":"29.0319","GPS_SOUTH":"-23.67473"}},
{"type":"Feature","geometry":{"type":"Point","coordinates":[28.65612,-23.48723,0]},"properties":{"name":"Gilead Periodical Court","description":"PROVINCE: LP<br>MagisterialDistrict: Blouberg [Blouberg]<br>PreviouslyKnownAs: <br>AlsoKnownAs: <br>SMALLCLAIM: No<br>EQUALITY_C: No<br>Tel: 015 483 0302/3<br>Fax: 015 483 0302 Tel/Fax<br>Postal: Private Bag X2493, Mokopane 0600<br>STREET_ADR: Next to N11<br>TOWN: Gilead<br>MUNICIPALI: Mogalakwena Local Municipality<br>DISTRICT: Waterberg<br>GPS_EAST: 28.65612<br>GPS_SOUTH: -23.48723","PROVINCE":"LP","MagisterialDistrict":"Blouberg [Blouberg]","PreviouslyKnownAs":"","AlsoKnownAs":"","SMALLCLAIM":"No","EQUALITY_C":"No","Tel":"015 483 0302/3","Fax":"015 483 0302 Tel/Fax","Postal":"Private Bag X2493, Mokopane 0600","STREET_ADR":"Next to N11","TOWN":"Gilead","MUNICIPALI":"Mogalakwena Local Municipality","DISTRICT":"Waterberg","GPS_EAST":"28.65612","GPS_SOUTH":"-23.48723"}},
{"type":"Feature","geometry":{"type":"Point","coordinates":[30.69439,-23.31234,0]},"properties":{"name":"Giyani Magistrate Court","description":"PROVINCE: LP<br>MagisterialDistrict: Giyani [Giyani] <br>PreviouslyKnownAs: <br>AlsoKnownAs: <br>SMALLCLAIM: Yes<br>EQUALITY_C: Yes<br>Tel: 015 812 3276/ 0420/ 0421<br>Fax: 015 812 0423<br>Postal: Private Bag X572, Giyani 0826<br>STREET_ADR: Stand 67 Unit BA, Main, Road Next to Hospital<br>TOWN: Giyani<br>MUNICIPALI: Greater Giyani Local Municipality<br>DISTRICT: Mopani<br>GPS_EAST: 30.69439<br>GPS_SOUTH: -23.31234","PROVINCE":"LP","MagisterialDistrict":"Giyani [Giyani] ","PreviouslyKnownAs":"","AlsoKnownAs":"","SMALLCLAIM":"Yes","EQUALITY_C":"Yes","Tel":"015 812 3276/ 0420/ 0421","Fax":"015 812 0423","Postal":"Private Bag X572, Giyani 0826","STREET_ADR":"Stand 67 Unit BA, Main, Road Next to Hospital","TOWN":"Giyani","MUNICIPALI":"Greater Giyani Local Municipality","DISTRICT":"Mopani","GPS_EAST":"30.69439","GPS_SOUTH":"-23.31234"}},
{"type":"Feature","geometry":{"type":"Point","coordinates":[30.61314,-23.95181,0]},"properties":{"name":"Gravelotte Periodical Court","description":"PROVINCE: LP<br>MagisterialDistrict: Polokwane [Seshego]<br>PreviouslyKnownAs: <br>AlsoKnownAs: <br>SMALLCLAIM: Yes (Sessions Only)<br>EQUALITY_C: No<br>Tel: 015 781 2731<br>Fax: 015 781 1819<br>Postal: Private Bag X01016, Phalaborwa 1390<br>STREET_ADR: 1 Hardekool Street,<br>TOWN: Gravelotte<br>MUNICIPALI: Ba-Phalaborwa Local Municipality<br>DISTRICT: Mopani<br>GPS_EAST: 30.61314<br>GPS_SOUTH: -23.95181","PROVINCE":"LP","MagisterialDistrict":"Polokwane [Seshego]","PreviouslyKnownAs":"","AlsoKnownAs":"","SMALLCLAIM":"Yes (Sessions Only)","EQUALITY_C":"No","Tel":"015 781 2731","Fax":"015 781 1819","Postal":"Private Bag X01016, Phalaborwa 1390","STREET_ADR":"1 Hardekool Street,","TOWN":"Gravelotte","MUNICIPALI":"Ba-Phalaborwa Local Municipality","DISTRICT":"Mopani","GPS_EAST":"30.61314","GPS_SOUTH":"-23.95181"}},
{"type":"Feature","geometry":{"type":"Point","coordinates":[29.39426,-25.16838,0]},"properties":{"name":"Groblersdal Magistrate Court","description":"PROVINCE: LP<br>MagisterialDistrict: Elias Motsoaledi [Groblersdal]<br>PreviouslyKnownAs: <br>AlsoKnownAs: <br>SMALLCLAIM: Yes<br>EQUALITY_C: Yes<br>Tel: 013 262 2033/ 34<br>Fax: 013 262 3000<br>Postal: Private Bag X617, Groblersdal 0470<br>STREET_ADR: 13 Taute Street (cnr Taute & Van Riebeeck Str),<br>TOWN: Groblersdal<br>MUNICIPALI: Elias Motsoaledi Local Municipality<br>DISTRICT: Sekhukhune<br>GPS_EAST: 29.39426<br>GPS_SOUTH: -25.16838","PROVINCE":"LP","MagisterialDistrict":"Elias Motsoaledi [Groblersdal]","PreviouslyKnownAs":"","AlsoKnownAs":"","SMALLCLAIM":"Yes","EQUALITY_C":"Yes","Tel":"013 262 2033/ 34","Fax":"013 262 3000","Postal":"Private Bag X617, Groblersdal 0470","STREET_ADR":"13 Taute Street (cnr Taute & Van Riebeeck Str),","TOWN":"Groblersdal","MUNICIPALI":"Elias Motsoaledi Local Municipality","DISTRICT":"Sekhukhune","GPS_EAST":"29.39426","GPS_SOUTH":"-25.16838"}},
{"type":"Feature","geometry":{"type":"Point","coordinates":[29.94045,-23.94078,0]},"properties":{"name":"Haenertsburg Periodical Court","description":"PROVINCE: LP<br>MagisterialDistrict: Mogalakwena [Mahwelereng]<br>PreviouslyKnownAs: <br>AlsoKnownAs: <br>SMALLCLAIM: No<br>EQUALITY_C: No<br>Tel: 015 294 6000<br>Fax: 015 294 6074<br>Postal: Private Bag X9320, Polokwane 0700<br>STREET_ADR: Rush Street<br>TOWN: Haenertsburg<br>MUNICIPALI: Greater Tzaneen Local Municipality<br>DISTRICT: Mopani<br>GPS_EAST: 29.94045<br>GPS_SOUTH: -23.94078","PROVINCE":"LP","MagisterialDistrict":"Mogalakwena [Mahwelereng]","PreviouslyKnownAs":"","AlsoKnownAs":"","SMALLCLAIM":"No","EQUALITY_C":"No","Tel":"015 294 6000","Fax":"015 294 6074","Postal":"Private Bag X9320, Polokwane 0700","STREET_ADR":"Rush Street","TOWN":"Haenertsburg","MUNICIPALI":"Greater Tzaneen Local Municipality","DISTRICT":"Mopani","GPS_EAST":"29.94045","GPS_SOUTH":"-23.94078"}},
{"type":"Feature","geometry":{"type":"Point","coordinates":[30.8274,-22.65219,0]},"properties":{"name":"Ha-Makuya Periodical Court","description":"PROVINCE: LP<br>MagisterialDistrict: Ba-Phalaborwa [Namakgale]<br>PreviouslyKnownAs: <br>AlsoKnownAs: <br>SMALLCLAIM: No<br>EQUALITY_C: No<br>Tel: 015 962 5550<br>Fax: 015 962 5566<br>Postal: Private Bag X5005, Thohoyandou 0950<br>STREET_ADR: SAPS Makuya, Mthiphu Street, on the R523,<br>TOWN: HaMakuya<br>MUNICIPALI: Thulamela Local Municipality<br>DISTRICT: Vhembe<br>GPS_EAST: 30.8274<br>GPS_SOUTH: -22.65219","PROVINCE":"LP","MagisterialDistrict":"Ba-Phalaborwa [Namakgale]","PreviouslyKnownAs":"","AlsoKnownAs":"","SMALLCLAIM":"No","EQUALITY_C":"No","Tel":"015 962 5550","Fax":"015 962 5566","Postal":"Private Bag X5005, Thohoyandou 0950","STREET_ADR":"SAPS Makuya, Mthiphu Street, on the R523,","TOWN":"HaMakuya","MUNICIPALI":"Thulamela Local Municipality","DISTRICT":"Vhembe","GPS_EAST":"30.8274","GPS_SOUTH":"-22.65219"}},
{"type":"Feature","geometry":{"type":"Point","coordinates":[30.951,-24.35398,0]},"properties":{"name":"Hoedspruit Branch Court","description":"PROVINCE: LP<br>MagisterialDistrict: Tzaneen [Lenyenye]<br>PreviouslyKnownAs: <br>AlsoKnownAs: <br>SMALLCLAIM: Yes (Sessions Only)<br>EQUALITY_C: No<br>Tel: 015 781 2731<br>Fax: 015 781 1819<br>Postal: Private Bag X01016, Phalaborwa 1390<br>STREET_ADR: c/o Moose and Ohrigstad Street (R527)<br>TOWN: Hoedspruit<br>MUNICIPALI: Maruleng Local Municipality<br>DISTRICT: Mopani<br>GPS_EAST: 30.951<br>GPS_SOUTH: -24.35398","PROVINCE":"LP","MagisterialDistrict":"Tzaneen [Lenyenye]","PreviouslyKnownAs":"","AlsoKnownAs":"","SMALLCLAIM":"Yes (Sessions Only)","EQUALITY_C":"No","Tel":"015 781 2731","Fax":"015 781 1819","Postal":"Private Bag X01016, Phalaborwa 1390","STREET_ADR":"c/o Moose and Ohrigstad Street (R527)","TOWN":"Hoedspruit","MUNICIPALI":"Maruleng Local Municipality","DISTRICT":"Mopani","GPS_EAST":"30.951","GPS_SOUTH":"-24.35398"}},
{"type":"Feature","geometry":{"type":"Point","coordinates":[30.64792,-24.50923,0]},"properties":{"name":"Leboeng Periodical Court","description":"PROVINCE: LP<br>MagisterialDistrict: Tzaneen [Tzaneen] <br>PreviouslyKnownAs: <br>AlsoKnownAs: <br>SMALLCLAIM: No<br>EQUALITY_C: No<br>Tel: 013 216 1091<br>Fax: 013 216 1730<br>Postal: Private Bag X1013, Burgersfort 1150<br>STREET_ADR: Mbeki Street<br>TOWN: Leboeng<br>MUNICIPALI: Greater Tubatse Local Municipality<br>DISTRICT: Sekhukhune<br>GPS_EAST: 30.64792<br>GPS_SOUTH: -24.50923","PROVINCE":"LP","MagisterialDistrict":"Tzaneen [Tzaneen] ","PreviouslyKnownAs":"","AlsoKnownAs":"","SMALLCLAIM":"No","EQUALITY_C":"No","Tel":"013 216 1091","Fax":"013 216 1730","Postal":"Private Bag X1013, Burgersfort 1150","STREET_ADR":"Mbeki Street","TOWN":"Leboeng","MUNICIPALI":"Greater Tubatse Local Municipality","DISTRICT":"Sekhukhune","GPS_EAST":"30.64792","GPS_SOUTH":"-24.50923"}},
{"type":"Feature","geometry":{"type":"Point","coordinates":[29.47842,-24.32035,0]},"properties":{"name":"Lebowakgomo Magistrate Court","description":"PROVINCE: LP<br>MagisterialDistrict: Lepele-Nkumpi [Lebowakgomo]<br>PreviouslyKnownAs: <br>AlsoKnownAs: Thabamoopo<br>SMALLCLAIM: Yes<br>EQUALITY_C: Yes<br>Tel: 015 633 2600<br>Fax: 015 633 7178<br>Postal: Private Bag X05, Chuenespoort 0745<br>STREET_ADR: Next to Mabhori Shopping Centre, Chuenespoort<br>TOWN: Lebowakgomo<br>MUNICIPALI: Lepelle-Nkumpi Local Municipality<br>DISTRICT: Capricon<br>GPS_EAST: 29.47842<br>GPS_SOUTH: -24.32035","PROVINCE":"LP","MagisterialDistrict":"Lepele-Nkumpi [Lebowakgomo]","PreviouslyKnownAs":"","AlsoKnownAs":"Thabamoopo","SMALLCLAIM":"Yes","EQUALITY_C":"Yes","Tel":"015 633 2600","Fax":"015 633 7178","Postal":"Private Bag X05, Chuenespoort 0745","STREET_ADR":"Next to Mabhori Shopping Centre, Chuenespoort","TOWN":"Lebowakgomo","MUNICIPALI":"Lepelle-Nkumpi Local Municipality","DISTRICT":"Capricon","GPS_EAST":"29.47842","GPS_SOUTH":"-24.32035"}},
{"type":"Feature","geometry":{"type":"Point","coordinates":[30.27002,-23.97211,0]},"properties":{"name":"Lenyenye Magistrate Court","description":"PROVINCE: LP<br>MagisterialDistrict: Tzaneen [Lenyenye]<br>PreviouslyKnownAs: <br>AlsoKnownAs: Naphuno<br>SMALLCLAIM: Yes<br>EQUALITY_C: Yes<br>Tel: 015 355 3414/5/6<br>Fax: 015 355 3463<br>Postal: Private Bag X1416, Lenyenye 0857<br>STREET_ADR: Cnr Magistrate & Police Street<br>TOWN: Lenyenye<br>MUNICIPALI: Greater Tzaneen Local Municipality<br>DISTRICT: Mopani<br>GPS_EAST: 30.27002<br>GPS_SOUTH: -23.97211","PROVINCE":"LP","MagisterialDistrict":"Tzaneen [Lenyenye]","PreviouslyKnownAs":"","AlsoKnownAs":"Naphuno","SMALLCLAIM":"Yes","EQUALITY_C":"Yes","Tel":"015 355 3414/5/6","Fax":"015 355 3463","Postal":"Private Bag X1416, Lenyenye 0857","STREET_ADR":"Cnr Magistrate & Police Street","TOWN":"Lenyenye","MUNICIPALI":"Greater Tzaneen Local Municipality","DISTRICT":"Mopani","GPS_EAST":"30.27002","GPS_SOUTH":"-23.97211"}},
{"type":"Feature","geometry":{"type":"Point","coordinates":[27.73573,-23.67796,0]},"properties":{"name":"Lephalale Magistrate Court","description":"PROVINCE: LP<br>MagisterialDistrict: Lephalale [Lephalale]<br>PreviouslyKnownAs: Ellisras<br>AlsoKnownAs: <br>SMALLCLAIM: Yes<br>EQUALITY_C: Yes<br>Tel: 014 763 2178 / 763 1047<br>Fax: 014 763 3840<br>Postal: Private Bag X201, Lephalale 0555<br>STREET_ADR: 2 Park Avenue<br>TOWN: Lephalale<br>MUNICIPALI: Lephalale Local  Municipality<br>DISTRICT: Waterberg<br>GPS_EAST: 27.73573<br>GPS_SOUTH: -23.67796","PROVINCE":"LP","MagisterialDistrict":"Lephalale [Lephalale]","PreviouslyKnownAs":"Ellisras","AlsoKnownAs":"","SMALLCLAIM":"Yes","EQUALITY_C":"Yes","Tel":"014 763 2178 / 763 1047","Fax":"014 763 3840","Postal":"Private Bag X201, Lephalale 0555","STREET_ADR":"2 Park Avenue","TOWN":"Lephalale","MUNICIPALI":"Lephalale Local  Municipality","DISTRICT":"Waterberg","GPS_EAST":"27.73573","GPS_SOUTH":"-23.67796"}},
{"type":"Feature","geometry":{"type":"Point","coordinates":[30.39273,-23.89401,0]},"properties":{"name":"Letsitele Periodical Court","description":"PROVINCE: LP<br>MagisterialDistrict: Thulamela [Thohoyandou]<br>PreviouslyKnownAs: <br>AlsoKnownAs: <br>SMALLCLAIM: No<br>EQUALITY_C: No<br>Tel: 015 307 3770<br>Fax: 015 307 4163<br>Postal: Private Bag X4010, Tzaneen 0850<br>STREET_ADR: Joubert Street<br>TOWN: Letsitele<br>MUNICIPALI: Greater Tzaneen Local Municipality<br>DISTRICT: Mopani<br>GPS_EAST: 30.39273<br>GPS_SOUTH: -23.89401","PROVINCE":"LP","MagisterialDistrict":"Thulamela [Thohoyandou]","PreviouslyKnownAs":"","AlsoKnownAs":"","SMALLCLAIM":"No","EQUALITY_C":"No","Tel":"015 307 3770","Fax":"015 307 4163","Postal":"Private Bag X4010, Tzaneen 0850","STREET_ADR":"Joubert Street","TOWN":"Letsitele","MUNICIPALI":"Greater Tzaneen Local Municipality","DISTRICT":"Mopani","GPS_EAST":"30.39273","GPS_SOUTH":"-23.89401"}},
{"type":"Feature","geometry":{"type":"Point","coordinates":[30.27622,-23.09212,0]},"properties":{"name":"Levubu Periodical Court","description":"PROVINCE: LP<br>MagisterialDistrict: Tubatse [Burgersfort]<br>PreviouslyKnownAs: <br>AlsoKnownAs: <br>SMALLCLAIM: No<br>EQUALITY_C: No<br>Tel: 015 516 0181/2/3<br>Fax: 015 516 0044<br>Postal: Private Bag X2403, Louis Trichardt 0920<br>STREET_ADR: Main Road,SAPS<br>TOWN: Levubu<br>MUNICIPALI: Makhado Local Municipality<br>DISTRICT: Vhembe<br>GPS_EAST: 30.27622<br>GPS_SOUTH: -23.09212","PROVINCE":"LP","MagisterialDistrict":"Tubatse [Burgersfort]","PreviouslyKnownAs":"","AlsoKnownAs":"","SMALLCLAIM":"No","EQUALITY_C":"No","Tel":"015 516 0181/2/3","Fax":"015 516 0044","Postal":"Private Bag X2403, Louis Trichardt 0920","STREET_ADR":"Main Road,SAPS","TOWN":"Levubu","MUNICIPALI":"Makhado Local Municipality","DISTRICT":"Vhembe","GPS_EAST":"30.27622","GPS_SOUTH":"-23.09212"}},
{"type":"Feature","geometry":{"type":"Point","coordinates":[29.90637,-23.03811,0]},"properties":{"name":"Louis Trichardt Magistrate Court","description":"PROVINCE: LP<br>MagisterialDistrict: Makhado [Louis Trichardt]<br>PreviouslyKnownAs: <br>AlsoKnownAs: Makhado<br>SMALLCLAIM: Yes<br>EQUALITY_C: Yes<br>Tel: 015 516 0181/2/3<br>Fax: 015 516 0044<br>Postal: Private Bag X2403, Louis Trichardt 0920<br>STREET_ADR: 103 Munnik Street<br>TOWN: Louis Trichardt<br>MUNICIPALI: Makhado Local Municipality<br>DISTRICT: Vhembe<br>GPS_EAST: 29.90637<br>GPS_SOUTH: -23.03811","PROVINCE":"LP","MagisterialDistrict":"Makhado [Louis Trichardt]","PreviouslyKnownAs":"","AlsoKnownAs":"Makhado","SMALLCLAIM":"Yes","EQUALITY_C":"Yes","Tel":"015 516 0181/2/3","Fax":"015 516 0044","Postal":"Private Bag X2403, Louis Trichardt 0920","STREET_ADR":"103 Munnik Street","TOWN":"Louis Trichardt","MUNICIPALI":"Makhado Local Municipality","DISTRICT":"Vhembe","GPS_EAST":"29.90637","GPS_SOUTH":"-23.03811"}},
{"type":"Feature","geometry":{"type":"Point","coordinates":[31.08087,-23.86722,0]},"properties":{"name":"Lulekani Magistrate Court","description":"PROVINCE: LP<br>MagisterialDistrict: Ba-Phalaborwa [Lulekani]<br>PreviouslyKnownAs: <br>AlsoKnownAs: <br>SMALLCLAIM: Yes<br>EQUALITY_C: Yes<br>Tel: 015 783 0151/2<br>Fax: 015 783 0620<br>Postal: Private Bag X12005, Lulekani 1392<br>STREET_ADR: Chris Hani Street<br>TOWN: Lulekani<br>MUNICIPALI: Ba-Phalaborwa Local Municipality<br>DISTRICT: Mopani<br>GPS_EAST: 31.08087<br>GPS_SOUTH: -23.86722","PROVINCE":"LP","MagisterialDistrict":"Ba-Phalaborwa [Lulekani]","PreviouslyKnownAs":"","AlsoKnownAs":"","SMALLCLAIM":"Yes","EQUALITY_C":"Yes","Tel":"015 783 0151/2","Fax":"015 783 0620","Postal":"Private Bag X12005, Lulekani 1392","STREET_ADR":"Chris Hani Street","TOWN":"Lulekani","MUNICIPALI":"Ba-Phalaborwa Local Municipality","DISTRICT":"Mopani","GPS_EAST":"31.08087","GPS_SOUTH":"-23.86722"}},
{"type":"Feature","geometry":{"type":"Point","coordinates":[29.41136,-24.45589,0]},"properties":{"name":"Magatle Branch Court","description":"PROVINCE: LP<br>MagisterialDistrict: Lepele-Nkumpi [Lebowakgomo]<br>PreviouslyKnownAs: <br>AlsoKnownAs: <br>SMALLCLAIM: Yes (Sessions Only)<br>EQUALITY_C: No<br>Tel: 015 483 0302/3<br>Fax: 015 483 0302 Tel/Fax<br>Postal: Private Bag X2493, Mokopane 0600<br>STREET_ADR: Area 7 Magatle, Main Road<br>TOWN: Magatle<br>MUNICIPALI: Lepelle-Nkumpi Local Municipality<br>DISTRICT: Capricon<br>GPS_EAST: 29.41136<br>GPS_SOUTH: -24.45589","PROVINCE":"LP","MagisterialDistrict":"Lepele-Nkumpi [Lebowakgomo]","PreviouslyKnownAs":"","AlsoKnownAs":"","SMALLCLAIM":"Yes (Sessions Only)","EQUALITY_C":"No","Tel":"015 483 0302/3","Fax":"015 483 0302 Tel/Fax","Postal":"Private Bag X2493, Mokopane 0600","STREET_ADR":"Area 7 Magatle, Main Road","TOWN":"Magatle","MUNICIPALI":"Lepelle-Nkumpi Local Municipality","DISTRICT":"Capricon","GPS_EAST":"29.41136","GPS_SOUTH":"-24.45589"}},
{"type":"Feature","geometry":{"type":"Point","coordinates":[28.98316,-24.15216,0]},"properties":{"name":"Mahwelereng Magistrate Court","description":"PROVINCE: LP<br>MagisterialDistrict: Mogalakwena [Mahwelereng]<br>PreviouslyKnownAs: <br>AlsoKnownAs: Morekong<br>SMALLCLAIM: Yes<br>EQUALITY_C: Yes<br>Tel: 015 483 0302/3<br>Fax: 015 483 0302 Tel/Fax<br>Postal: Private Bag X2493, Mokopane 0600<br>STREET_ADR: Hospital Street<br>TOWN: Mahwelereng<br>MUNICIPALI: Mogalakwena Local Municipality<br>DISTRICT: Waterberg<br>GPS_EAST: 28.98316<br>GPS_SOUTH: -24.15216","PROVINCE":"LP","MagisterialDistrict":"Mogalakwena [Mahwelereng]","PreviouslyKnownAs":"","AlsoKnownAs":"Morekong","SMALLCLAIM":"Yes","EQUALITY_C":"Yes","Tel":"015 483 0302/3","Fax":"015 483 0302 Tel/Fax","Postal":"Private Bag X2493, Mokopane 0600","STREET_ADR":"Hospital Street","TOWN":"Mahwelereng","MUNICIPALI":"Mogalakwena Local Municipality","DISTRICT":"Waterberg","GPS_EAST":"28.98316","GPS_SOUTH":"-24.15216"}},
{"type":"Feature","geometry":{"type":"Point","coordinates":[30.6887,-23.00506,0]},"properties":{"name":"Malamulele Magistrate Court","description":"PROVINCE: LP<br>MagisterialDistrict: Malamulele [Malamulele]<br>PreviouslyKnownAs: <br>AlsoKnownAs: Boltman 211 LT<br>SMALLCLAIM: Yes<br>EQUALITY_C: Yes<br>Tel: 015 851 0022/3/4<br>Fax: 015 851 1357<br>Postal: Private Bag X9180, Malamulele 0982<br>STREET_ADR: Police Hospital Road,<br>TOWN: Malamulele<br>MUNICIPALI: New Municipal to be proclaimed<br>DISTRICT: Vhembe<br>GPS_EAST: 30.6887<br>GPS_SOUTH: -23.00506","PROVINCE":"LP","MagisterialDistrict":"Malamulele [Malamulele]","PreviouslyKnownAs":"","AlsoKnownAs":"Boltman 211 LT","SMALLCLAIM":"Yes","EQUALITY_C":"Yes","Tel":"015 851 0022/3/4","Fax":"015 851 1357","Postal":"Private Bag X9180, Malamulele 0982","STREET_ADR":"Police Hospital Road,","TOWN":"Malamulele","MUNICIPALI":"New Municipal to be proclaimed","DISTRICT":"Vhembe","GPS_EAST":"30.6887","GPS_SOUTH":"-23.00506"}},
{"type":"Feature","geometry":{"type":"Point","coordinates":[30.00271,-24.17487,0]},"properties":{"name":"Malipsdrift Periodical Court","description":"PROVINCE: LP<br>MagisterialDistrict: Malamulele [Vuwani]<br>PreviouslyKnownAs: <br>AlsoKnownAs: <br>SMALLCLAIM: Yes (Sessions Only)<br>EQUALITY_C: No<br>Tel: 015 633 7160/ 1/2/3/4<br>Fax: 015 633 7177/8<br>Postal: Private Bag X05, Chuenespoort 0745<br>STREET_ADR: Next to Malipsdrift SAPS<br>TOWN: Malipsdrift<br>MUNICIPALI: Lepelle-Nkumpi Local Municipality<br>DISTRICT: Capricon<br>GPS_EAST: 30.00271<br>GPS_SOUTH: -24.17487","PROVINCE":"LP","MagisterialDistrict":"Malamulele [Vuwani]","PreviouslyKnownAs":"","AlsoKnownAs":"","SMALLCLAIM":"Yes (Sessions Only)","EQUALITY_C":"No","Tel":"015 633 7160/ 1/2/3/4","Fax":"015 633 7177/8","Postal":"Private Bag X05, Chuenespoort 0745","STREET_ADR":"Next to Malipsdrift SAPS","TOWN":"Malipsdrift","MUNICIPALI":"Lepelle-Nkumpi Local Municipality","DISTRICT":"Capricon","GPS_EAST":"30.00271","GPS_SOUTH":"-24.17487"}},
{"type":"Feature","geometry":{"type":"Point","coordinates":[29.70164,-23.88197,0]},"properties":{"name":"Mankweng Magistrate Court","description":"PROVINCE: LP<br>MagisterialDistrict: Polokwane [Mankweng]<br>PreviouslyKnownAs: <br>AlsoKnownAs: Sovenga<br>SMALLCLAIM: Yes<br>EQUALITY_C: Yes<br>Tel: 015 286 2200<br>Fax: 015 267 1063<br>Postal: Private Bag X1114, Sovenga 0727<br>STREET_ADR: 1057 Unit C,<br>TOWN: Mankweng<br>MUNICIPALI: Polokwane Local municopality<br>DISTRICT: Capricorn<br>GPS_EAST: 29.70164<br>GPS_SOUTH: -23.88197","PROVINCE":"LP","MagisterialDistrict":"Polokwane [Mankweng]","PreviouslyKnownAs":"","AlsoKnownAs":"Sovenga","SMALLCLAIM":"Yes","EQUALITY_C":"Yes","Tel":"015 286 2200","Fax":"015 267 1063","Postal":"Private Bag X1114, Sovenga 0727","STREET_ADR":"1057 Unit C,","TOWN":"Mankweng","MUNICIPALI":"Polokwane Local municopality","DISTRICT":"Capricorn","GPS_EAST":"29.70164","GPS_SOUTH":"-23.88197"}},
{"type":"Feature","geometry":{"type":"Point","coordinates":[28.30846,-25.13319,0]},"properties":{"name":"Mantsole Traffic Control Centre Periodical Court","description":"PROVINCE: LP<br>MagisterialDistrict: Lepele-Nkumpi [Lebowakgomo]<br>PreviouslyKnownAs: <br>AlsoKnownAs: Mantsolo<br>SMALLCLAIM: No<br>EQUALITY_C: No<br>Tel: 014 736 2231<br>Fax: 014 736 5210/0865075648<br>Postal: Private Bag X1617, Bela-Bela 0480<br>STREET_ADR: N1 Mantsole Taffic Control<br>TOWN: Pienaarsrivier<br>MUNICIPALI: Bela-Bela Local Municipality<br>DISTRICT: Waterberg<br>GPS_EAST: 28.30846<br>GPS_SOUTH: -25.13319","PROVINCE":"LP","MagisterialDistrict":"Lepele-Nkumpi [Lebowakgomo]","PreviouslyKnownAs":"","AlsoKnownAs":"Mantsolo","SMALLCLAIM":"No","EQUALITY_C":"No","Tel":"014 736 2231","Fax":"014 736 5210/0865075648","Postal":"Private Bag X1617, Bela-Bela 0480","STREET_ADR":"N1 Mantsole Taffic Control","TOWN":"Pienaarsrivier","MUNICIPALI":"Bela-Bela Local Municipality","DISTRICT":"Waterberg","GPS_EAST":"28.30846","GPS_SOUTH":"-25.13319"}},
{"type":"Feature","geometry":{"type":"Point","coordinates":[29.39328,-23.09121,0]},"properties":{"name":"Mara Periodical Court","description":"PROVINCE: LP<br>MagisterialDistrict: Bela-Bela [Bela-Bela]<br>PreviouslyKnownAs: <br>AlsoKnownAs: <br>SMALLCLAIM: No<br>EQUALITY_C: No<br>Tel: 015 516 0181/2/3<br>Fax: 015 516 0044<br>Postal: Private Bag X2403, Louis Trichardt 0920<br>STREET_ADR: SAPS Mara<br>TOWN: Mara<br>MUNICIPALI: Makhado Local Municipality<br>DISTRICT: Vhembe<br>GPS_EAST: 29.39328<br>GPS_SOUTH: -23.09121","PROVINCE":"LP","MagisterialDistrict":"Bela-Bela [Bela-Bela]","PreviouslyKnownAs":"","AlsoKnownAs":"","SMALLCLAIM":"No","EQUALITY_C":"No","Tel":"015 516 0181/2/3","Fax":"015 516 0044","Postal":"Private Bag X2403, Louis Trichardt 0920","STREET_ADR":"SAPS Mara","TOWN":"Mara","MUNICIPALI":"Makhado Local Municipality","DISTRICT":"Vhembe","GPS_EAST":"29.39328","GPS_SOUTH":"-23.09121"}},
{"type":"Feature","geometry":{"type":"Point","coordinates":[29.2972,-24.96947,0]},"properties":{"name":"Marble Hall Periodical Court","description":"PROVINCE: LP<br>MagisterialDistrict: Makhado [Tshilwavhusiku]<br>PreviouslyKnownAs: <br>AlsoKnownAs: <br>SMALLCLAIM: No<br>EQUALITY_C: No<br>Tel: 013 262 2033/34<br>Fax: 013 262 3000<br>Postal: Private Bag X617, Groblersdal 0470<br>STREET_ADR: 147 Marble East, Next to SAPS Marble Hall<br>TOWN: Marble Hall<br>MUNICIPALI: Ephraim Mogale Local Municipality<br>DISTRICT: Sekhukhune<br>GPS_EAST: 29.2972<br>GPS_SOUTH: -24.96947","PROVINCE":"LP","MagisterialDistrict":"Makhado [Tshilwavhusiku]","PreviouslyKnownAs":"","AlsoKnownAs":"","SMALLCLAIM":"No","EQUALITY_C":"No","Tel":"013 262 2033/34","Fax":"013 262 3000","Postal":"Private Bag X617, Groblersdal 0470","STREET_ADR":"147 Marble East, Next to SAPS Marble Hall","TOWN":"Marble Hall","MUNICIPALI":"Ephraim Mogale Local Municipality","DISTRICT":"Sekhukhune","GPS_EAST":"29.2972","GPS_SOUTH":"-24.96947"}},
{"type":"Feature","geometry":{"type":"Point","coordinates":[30.86348,-22.4217,0]},"properties":{"name":"Masisi Periodical Court","description":"PROVINCE: LP<br>MagisterialDistrict: Elias Motsoaledi [Groblersdal]<br>PreviouslyKnownAs: <br>AlsoKnownAs: <br>SMALLCLAIM: No<br>EQUALITY_C: No<br>Tel: 015 967 0045/0038/ 0077<br>Fax: 015 967 0085<br>Postal: Private Bag X1153, Mutale 0956<br>STREET_ADR: Next to SAPS Masisi<br>TOWN: Masisi<br>MUNICIPALI: Mutale Local Municipality<br>DISTRICT: Vhembe<br>GPS_EAST: 30.86348<br>GPS_SOUTH: -22.4217","PROVINCE":"LP","MagisterialDistrict":"Elias Motsoaledi [Groblersdal]","PreviouslyKnownAs":"","AlsoKnownAs":"","SMALLCLAIM":"No","EQUALITY_C":"No","Tel":"015 967 0045/0038/ 0077","Fax":"015 967 0085","Postal":"Private Bag X1153, Mutale 0956","STREET_ADR":"Next to SAPS Masisi","TOWN":"Masisi","MUNICIPALI":"Mutale Local Municipality","DISTRICT":"Vhembe","GPS_EAST":"30.86348","GPS_SOUTH":"-22.4217"}},
{"type":"Feature","geometry":{"type":"Point","coordinates":[30.07393,-24.38702,0]},"properties":{"name":"Mecklenburg Branch Court","description":"PROVINCE: LP<br>MagisterialDistrict: Tubatse [Burgersfort]<br>PreviouslyKnownAs: <br>AlsoKnownAs: <br>SMALLCLAIM: No<br>EQUALITY_C: No<br>Tel: 013 216 1091<br>Fax: 013 216 1730<br>Postal: Private Bag X1013, Burgersfort 1150<br>STREET_ADR: R37, SAPS Moroke<br>TOWN: Mecklenburg<br>MUNICIPALI: Greater Tubatse Local Municipality<br>DISTRICT: Sekhukhune<br>GPS_EAST: 30.07393<br>GPS_SOUTH: -24.38702","PROVINCE":"LP","MagisterialDistrict":"Tubatse [Burgersfort]","PreviouslyKnownAs":"","AlsoKnownAs":"","SMALLCLAIM":"No","EQUALITY_C":"No","Tel":"013 216 1091","Fax":"013 216 1730","Postal":"Private Bag X1013, Burgersfort 1150","STREET_ADR":"R37, SAPS Moroke","TOWN":"Mecklenburg","MUNICIPALI":"Greater Tubatse Local Municipality","DISTRICT":"Sekhukhune","GPS_EAST":"30.07393","GPS_SOUTH":"-24.38702"}},
{"type":"Feature","geometry":{"type":"Point","coordinates":[28.40787,-24.70482,0]},"properties":{"name":"Modimolle Magistrate Court","description":"PROVINCE: LP<br>MagisterialDistrict: Modimolle [Modimolle]<br>PreviouslyKnownAs: Nylstroom<br>AlsoKnownAs: <br>SMALLCLAIM: Yes<br>EQUALITY_C: Yes<br>Tel: 014 717 5316<br>Fax: 014 717 5369<br>Postal: Private Bag X1011, Modimolle 0510<br>STREET_ADR: Cnr Van Emmenis & Dr J S Moroka Street<br>TOWN: Modimolle<br>MUNICIPALI: Modimolle/Mookgophong Local Municipality<br>DISTRICT: Waterberg<br>GPS_EAST: 28.40787<br>GPS_SOUTH: -24.70482","PROVINCE":"LP","MagisterialDistrict":"Modimolle [Modimolle]","PreviouslyKnownAs":"Nylstroom","AlsoKnownAs":"","SMALLCLAIM":"Yes","EQUALITY_C":"Yes","Tel":"014 717 5316","Fax":"014 717 5369","Postal":"Private Bag X1011, Modimolle 0510","STREET_ADR":"Cnr Van Emmenis & Dr J S Moroka Street","TOWN":"Modimolle","MUNICIPALI":"Modimolle/Mookgophong Local Municipality","DISTRICT":"Waterberg","GPS_EAST":"28.40787","GPS_SOUTH":"-24.70482"}},
{"type":"Feature","geometry":{"type":"Point","coordinates":[30.14495,-23.69583,0]},"properties":{"name":"Modjadjiskloof Periodical Court","description":"PROVINCE: LP<br>MagisterialDistrict: Letaba [Ga-Kgapane]<br>PreviouslyKnownAs: Duiwelskloof<br>AlsoKnownAs: <br>SMALLCLAIM: No<br>EQUALITY_C: No<br>Tel: 015 307 3770<br>Fax: 015 307 4163<br>Postal: Private Bag X4010, Tzaneen 0850<br>STREET_ADR: Botha Street,<br>TOWN: Modjadjiskloof<br>MUNICIPALI: Greater Letaba Local Municipality<br>DISTRICT: Mopani<br>GPS_EAST: 30.14495<br>GPS_SOUTH: -23.69583","PROVINCE":"LP","MagisterialDistrict":"Letaba [Ga-Kgapane]","PreviouslyKnownAs":"Duiwelskloof","AlsoKnownAs":"","SMALLCLAIM":"No","EQUALITY_C":"No","Tel":"015 307 3770","Fax":"015 307 4163","Postal":"Private Bag X4010, Tzaneen 0850","STREET_ADR":"Botha Street,","TOWN":"Modjadjiskloof","MUNICIPALI":"Greater Letaba Local Municipality","DISTRICT":"Mopani","GPS_EAST":"30.14495","GPS_SOUTH":"-23.69583"}},
{"type":"Feature","geometry":{"type":"Point","coordinates":[29.32263,-23.36444,0]},"properties":{"name":"Mogwadi Branch Court","description":"PROVINCE: LP<br>MagisterialDistrict: Molemole [Morebeng]<br>PreviouslyKnownAs: Dendron<br>AlsoKnownAs: <br>SMALLCLAIM: No<br>EQUALITY_C: No<br>Tel: 015 294 6000<br>Fax: 015 295 3286<br>Postal: Private Bag X9320, Polokwane 0700<br>STREET_ADR: SAPS Mogwadi, 182 Keerom Str<br>TOWN: Dendron<br>MUNICIPALI: Molemole Local Municipality<br>DISTRICT: Capricorn<br>GPS_EAST: 29.32263<br>GPS_SOUTH: -23.36444","PROVINCE":"LP","MagisterialDistrict":"Molemole [Morebeng]","PreviouslyKnownAs":"Dendron","AlsoKnownAs":"","SMALLCLAIM":"No","EQUALITY_C":"No","Tel":"015 294 6000","Fax":"015 295 3286","Postal":"Private Bag X9320, Polokwane 0700","STREET_ADR":"SAPS Mogwadi, 182 Keerom Str","TOWN":"Dendron","MUNICIPALI":"Molemole Local Municipality","DISTRICT":"Capricorn","GPS_EAST":"29.32263","GPS_SOUTH":"-23.36444"}},
{"type":"Feature","geometry":{"type":"Point","coordinates":[29.0152,-24.18494,0]},"properties":{"name":"Mokopane Magistrate Court","description":"PROVINCE: LP<br>MagisterialDistrict: Mogalakwena [Mokopane]<br>PreviouslyKnownAs: Potgietersrus<br>AlsoKnownAs: <br>SMALLCLAIM: Yes<br>EQUALITY_C: Yes<br>Tel: 015 491 2158<br>Fax: 015 491 8111<br>Postal: Private Bag X2499, Mokopane 0600<br>STREET_ADR: 70 Hooge Street,<br>TOWN: Mokopane<br>MUNICIPALI: Mogalakwena Local Municipality<br>DISTRICT: Waterberg<br>GPS_EAST: 29.0152<br>GPS_SOUTH: -24.18494","PROVINCE":"LP","MagisterialDistrict":"Mogalakwena [Mokopane]","PreviouslyKnownAs":"Potgietersrus","AlsoKnownAs":"","SMALLCLAIM":"Yes","EQUALITY_C":"Yes","Tel":"015 491 2158","Fax":"015 491 8111","Postal":"Private Bag X2499, Mokopane 0600","STREET_ADR":"70 Hooge Street,","TOWN":"Mokopane","MUNICIPALI":"Mogalakwena Local Municipality","DISTRICT":"Waterberg","GPS_EAST":"29.0152","GPS_SOUTH":"-24.18494"}},
{"type":"Feature","geometry":{"type":"Point","coordinates":[30.09923,-23.59492,0]},"properties":{"name":"Mooketsi Traffic Control Periodical Court","description":"PROVINCE: LP<br>MagisterialDistrict: Letaba [Ga-Kgapane]<br>PreviouslyKnownAs: <br>AlsoKnownAs: <br>SMALLCLAIM: No<br>EQUALITY_C: No<br>Tel: 015 395 7901<br>Fax: 015 383 9916<br>Postal: P/BAG X 773, Ga- Kgapane, 0838<br>STREET_ADR: Mooketsi Weigh Station<br>TOWN: Mooketsi<br>MUNICIPALI: Greater Letaba Local Municipality<br>DISTRICT: Mopani<br>GPS_EAST: 30.09923<br>GPS_SOUTH: -23.59492","PROVINCE":"LP","MagisterialDistrict":"Letaba [Ga-Kgapane]","PreviouslyKnownAs":"","AlsoKnownAs":"","SMALLCLAIM":"No","EQUALITY_C":"No","Tel":"015 395 7901","Fax":"015 383 9916","Postal":"P/BAG X 773, Ga- Kgapane, 0838","STREET_ADR":"Mooketsi Weigh Station","TOWN":"Mooketsi","MUNICIPALI":"Greater Letaba Local Municipality","DISTRICT":"Mopani","GPS_EAST":"30.09923","GPS_SOUTH":"-23.59492"}},
{"type":"Feature","geometry":{"type":"Point","coordinates":[28.71221,-24.51813,0]},"properties":{"name":"Mookgophong Magistrate Court","description":"PROVINCE: LP<br>MagisterialDistrict: Mookgopong [Mookgopong]<br>PreviouslyKnownAs: Naboomspruit<br>AlsoKnownAs: <br>SMALLCLAIM: No<br>EQUALITY_C: No<br>Tel: 014 743 2217/8<br>Fax: 014 743 0367<br>Postal: Private Bag X308, Mookgophong 0560<br>STREET_ADR: 47 5th Street,<br>TOWN: Mookgophong<br>MUNICIPALI: Modimolle/Mookgophong Local Municipality<br>DISTRICT: Waterberg<br>GPS_EAST: 28.71221<br>GPS_SOUTH: -24.51813","PROVINCE":"LP","MagisterialDistrict":"Mookgopong [Mookgopong]","PreviouslyKnownAs":"Naboomspruit","AlsoKnownAs":"","SMALLCLAIM":"No","EQUALITY_C":"No","Tel":"014 743 2217/8","Fax":"014 743 0367","Postal":"Private Bag X308, Mookgophong 0560","STREET_ADR":"47 5th Street,","TOWN":"Mookgophong","MUNICIPALI":"Modimolle/Mookgophong Local Municipality","DISTRICT":"Waterberg","GPS_EAST":"28.71221","GPS_SOUTH":"-24.51813"}},
{"type":"Feature","geometry":{"type":"Point","coordinates":[29.93585,-23.49485,0]},"properties":{"name":"Morebeng Magistrate Court","description":"PROVINCE: LP<br>MagisterialDistrict: Molemole [Morebeng]<br>PreviouslyKnownAs: Soekmekaar<br>AlsoKnownAs: Sekgosese/ Uitspan<br>SMALLCLAIM: Yes<br>EQUALITY_C: Yes<br>Tel: 015 397 7200<br>Fax: 015 874 0537<br>Postal: Private Bag X1307, Morebeng 0810<br>STREET_ADR: R36, Uitspan Farm, Doringboom Road<br>TOWN: Morebeng<br>MUNICIPALI: Molemole Local Municipality<br>DISTRICT: Capricon<br>GPS_EAST: 29.93585<br>GPS_SOUTH: -23.49485","PROVINCE":"LP","MagisterialDistrict":"Molemole [Morebeng]","PreviouslyKnownAs":"Soekmekaar","AlsoKnownAs":"Sekgosese/ Uitspan","SMALLCLAIM":"Yes","EQUALITY_C":"Yes","Tel":"015 397 7200","Fax":"015 874 0537","Postal":"Private Bag X1307, Morebeng 0810","STREET_ADR":"R36, Uitspan Farm, Doringboom Road","TOWN":"Morebeng","MUNICIPALI":"Molemole Local Municipality","DISTRICT":"Capricon","GPS_EAST":"29.93585","GPS_SOUTH":"-23.49485"}},
{"type":"Feature","geometry":{"type":"Point","coordinates":[29.46726,-25.09605,0]},"properties":{"name":"Motetema Periodical Court","description":"PROVINCE: LP<br>MagisterialDistrict: Elias Motsoaledi [Groblersdal]<br>PreviouslyKnownAs: <br>AlsoKnownAs: <br>SMALLCLAIM: No<br>EQUALITY_C: No<br>Tel: 013 264 8201<br>Fax: 015 264 8225/ 0865073717<br>Postal: Private Bag X102, Nebo 1059<br>STREET_ADR: SAPS Motetema<br>TOWN: Motetema<br>MUNICIPALI: Elias Motsoaledi Local Municipality<br>DISTRICT: Sekhukhune<br>GPS_EAST: 29.46726<br>GPS_SOUTH: -25.09605","PROVINCE":"LP","MagisterialDistrict":"Elias Motsoaledi [Groblersdal]","PreviouslyKnownAs":"","AlsoKnownAs":"","SMALLCLAIM":"No","EQUALITY_C":"No","Tel":"013 264 8201","Fax":"015 264 8225/ 0865073717","Postal":"Private Bag X102, Nebo 1059","STREET_ADR":"SAPS Motetema","TOWN":"Motetema","MUNICIPALI":"Elias Motsoaledi Local Municipality","DISTRICT":"Sekhukhune","GPS_EAST":"29.46726","GPS_SOUTH":"-25.09605"}},
{"type":"Feature","geometry":{"type":"Point","coordinates":[30.04502,-22.34408,0]},"properties":{"name":"Musina Magistrate Court","description":"PROVINCE: LP<br>MagisterialDistrict: Musina [Musina]<br>PreviouslyKnownAs: Messina<br>AlsoKnownAs: <br>SMALLCLAIM: Yes<br>EQUALITY_C: Yes<br>Tel: 015 534 2146/7<br>Fax: 015 534 0241<br>Postal: Private Bag X621, Musina 0900<br>STREET_ADR: 1 Flax Avenue<br>TOWN: Musina<br>MUNICIPALI: Musina Local Municipality<br>DISTRICT: Vhembe<br>GPS_EAST: 30.04502<br>GPS_SOUTH: -22.34408","PROVINCE":"LP","MagisterialDistrict":"Musina [Musina]","PreviouslyKnownAs":"Messina","AlsoKnownAs":"","SMALLCLAIM":"Yes","EQUALITY_C":"Yes","Tel":"015 534 2146/7","Fax":"015 534 0241","Postal":"Private Bag X621, Musina 0900","STREET_ADR":"1 Flax Avenue","TOWN":"Musina","MUNICIPALI":"Musina Local Municipality","DISTRICT":"Vhembe","GPS_EAST":"30.04502","GPS_SOUTH":"-22.34408"}},
{"type":"Feature","geometry":{"type":"Point","coordinates":[30.04365,-22.339901,0]},"properties":{"name":"Musina Traffic Control Centre Periodical Court","description":"PROVINCE: LP<br>MagisterialDistrict: Musina [Musina]<br>PreviouslyKnownAs: <br>AlsoKnownAs: <br>SMALLCLAIM: No<br>EQUALITY_C: No<br>Tel: 015 534 2146/7<br>Fax: 015 534 0241<br>Postal: Private Bag X621, Musina 0900<br>STREET_ADR: Musina Testing Ground<br>TOWN: Musina<br>MUNICIPALI: Musina Local Municipality<br>DISTRICT: Vhembe<br>GPS_EAST: 30.04365<br>GPS_SOUTH: -22.339901","PROVINCE":"LP","MagisterialDistrict":"Musina [Musina]","PreviouslyKnownAs":"","AlsoKnownAs":"","SMALLCLAIM":"No","EQUALITY_C":"No","Tel":"015 534 2146/7","Fax":"015 534 0241","Postal":"Private Bag X621, Musina 0900","STREET_ADR":"Musina Testing Ground","TOWN":"Musina","MUNICIPALI":"Musina Local Municipality","DISTRICT":"Vhembe","GPS_EAST":"30.04365","GPS_SOUTH":"-22.339901"}},
{"type":"Feature","geometry":{"type":"Point","coordinates":[30.52201,-22.7356,0]},"properties":{"name":"Mutale Magistrate Court","description":"PROVINCE: LP<br>MagisterialDistrict: Mutale [Mutale]<br>PreviouslyKnownAs: <br>AlsoKnownAs: Tshandama<br>SMALLCLAIM: Yes<br>EQUALITY_C: Yes<br>Tel: 015 967 0045/0038/ 0077<br>Fax: 015 967 0085<br>Postal: Private Bag X1153, Mutale 0956<br>STREET_ADR: Next to Mutale Police Station<br>TOWN: Mutale<br>MUNICIPALI: Mutale Local Municipality<br>DISTRICT: Vhembe<br>GPS_EAST: 30.52201<br>GPS_SOUTH: -22.7356","PROVINCE":"LP","MagisterialDistrict":"Mutale [Mutale]","PreviouslyKnownAs":"","AlsoKnownAs":"Tshandama","SMALLCLAIM":"Yes","EQUALITY_C":"Yes","Tel":"015 967 0045/0038/ 0077","Fax":"015 967 0085","Postal":"Private Bag X1153, Mutale 0956","STREET_ADR":"Next to Mutale Police Station","TOWN":"Mutale","MUNICIPALI":"Mutale Local Municipality","DISTRICT":"Vhembe","GPS_EAST":"30.52201","GPS_SOUTH":"-22.7356"}},
{"type":"Feature","geometry":{"type":"Point","coordinates":[31.02817,-23.93204,0]},"properties":{"name":"Namakgale Magistrate Court","description":"PROVINCE: LP<br>MagisterialDistrict: Ba-Phalaborwa [Namakgale]<br>PreviouslyKnownAs: <br>AlsoKnownAs: <br>SMALLCLAIM: Yes<br>EQUALITY_C: Yes<br>Tel: 015 769 1540/1424<br>Fax: 015 769 2561<br>Postal: Private Bag X11007, Namakgale 1391<br>STREET_ADR: Cnr Calvin Ngobeni & Ackson Malati Street,<br>TOWN: Namakgale<br>MUNICIPALI: Ba-Phalaborwa Local Municipality<br>DISTRICT: Mopani<br>GPS_EAST: 31.02817<br>GPS_SOUTH: -23.93204","PROVINCE":"LP","MagisterialDistrict":"Ba-Phalaborwa [Namakgale]","PreviouslyKnownAs":"","AlsoKnownAs":"","SMALLCLAIM":"Yes","EQUALITY_C":"Yes","Tel":"015 769 1540/1424","Fax":"015 769 2561","Postal":"Private Bag X11007, Namakgale 1391","STREET_ADR":"Cnr Calvin Ngobeni & Ackson Malati Street,","TOWN":"Namakgale","MUNICIPALI":"Ba-Phalaborwa Local Municipality","DISTRICT":"Mopani","GPS_EAST":"31.02817","GPS_SOUTH":"-23.93204"}},
{"type":"Feature","geometry":{"type":"Point","coordinates":[29.76015,-24.90708,0]},"properties":{"name":"Nebo Magistrate Court","description":"PROVINCE: LP<br>MagisterialDistrict: Makhuduthamaga [Nebo]<br>PreviouslyKnownAs: <br>AlsoKnownAs: <br>SMALLCLAIM: Yes<br>EQUALITY_C: Yes<br>Tel: 013 264 8201<br>Fax: 015 264 8225/ 0865073717<br>Postal: Private Bag X102, Nebo 1059<br>STREET_ADR: Next to Nebo Post Office<br>TOWN: Nebo<br>MUNICIPALI: Elias Motsoaledi Local Municipality<br>DISTRICT: Sekhukhune<br>GPS_EAST: 29.76015<br>GPS_SOUTH: -24.90708","PROVINCE":"LP","MagisterialDistrict":"Makhuduthamaga [Nebo]","PreviouslyKnownAs":"","AlsoKnownAs":"","SMALLCLAIM":"Yes","EQUALITY_C":"Yes","Tel":"013 264 8201","Fax":"015 264 8225/ 0865073717","Postal":"Private Bag X102, Nebo 1059","STREET_ADR":"Next to Nebo Post Office","TOWN":"Nebo","MUNICIPALI":"Elias Motsoaledi Local Municipality","DISTRICT":"Sekhukhune","GPS_EAST":"29.76015","GPS_SOUTH":"-24.90708"}},
{"type":"Feature","geometry":{"type":"Point","coordinates":[30.27695,-23.88309,0]},"properties":{"name":"Nkowankowa Magistrate Court","description":"PROVINCE: LP<br>MagisterialDistrict: Tzaneen [Nkowankowa]<br>PreviouslyKnownAs: <br>AlsoKnownAs: Ritavi<br>SMALLCLAIM: Yes<br>EQUALITY_C: Yes<br>Tel: 015 303 1721/2770<br>Fax: 015 303 2791<br>Postal: Private Bag X1415, Letaba 0870<br>STREET_ADR: 1513A Hlanganani Street<br>TOWN: Nkowankowa<br>MUNICIPALI: Greater Tzaneen Local Municipality<br>DISTRICT: Mopani<br>GPS_EAST: 30.27695<br>GPS_SOUTH: -23.88309","PROVINCE":"LP","MagisterialDistrict":"Tzaneen [Nkowankowa]","PreviouslyKnownAs":"","AlsoKnownAs":"Ritavi","SMALLCLAIM":"Yes","EQUALITY_C":"Yes","Tel":"015 303 1721/2770","Fax":"015 303 2791","Postal":"Private Bag X1415, Letaba 0870","STREET_ADR":"1513A Hlanganani Street","TOWN":"Nkowankowa","MUNICIPALI":"Greater Tzaneen Local Municipality","DISTRICT":"Mopani","GPS_EAST":"30.27695","GPS_SOUTH":"-23.88309"}},
{"type":"Feature","geometry":{"type":"Point","coordinates":[27.26432,-24.95815,0]},"properties":{"name":"Northam Magistrate Court","description":"PROVINCE: LP<br>MagisterialDistrict: Thabazimbi [Northam]<br>PreviouslyKnownAs: <br>AlsoKnownAs: <br>SMALLCLAIM: Yes<br>EQUALITY_C: No<br>Tel: 014 777 1543<br>Fax: 014 772  2523<br>Postal: Private Bag X535, Thabazimbi 0380<br>STREET_ADR: 24 Dwars Street, C/o Brits Rd & Venter Street,<br>TOWN: Northam<br>MUNICIPALI: Thabazimbi Local Municipality<br>DISTRICT: Waterberg<br>GPS_EAST: 27.26432<br>GPS_SOUTH: -24.95815","PROVINCE":"LP","MagisterialDistrict":"Thabazimbi [Northam]","PreviouslyKnownAs":"","AlsoKnownAs":"","SMALLCLAIM":"Yes","EQUALITY_C":"No","Tel":"014 777 1543","Fax":"014 772  2523","Postal":"Private Bag X535, Thabazimbi 0380","STREET_ADR":"24 Dwars Street, C/o Brits Rd & Venter Street,","TOWN":"Northam","MUNICIPALI":"Thabazimbi Local Municipality","DISTRICT":"Waterberg","GPS_EAST":"27.26432","GPS_SOUTH":"-24.95815"}},
{"type":"Feature","geometry":{"type":"Point","coordinates":[30.55849,-24.75323,0]},"properties":{"name":"Ohrigstad Periodical Court","description":"PROVINCE: LP<br>MagisterialDistrict: Tubatse [Burgersfort]<br>PreviouslyKnownAs: <br>AlsoKnownAs: <br>SMALLCLAIM: No<br>EQUALITY_C: No<br>Tel: 013 235 2325/6/7<br>Fax: 013 235 3411<br>Postal: Private Bag X1085, Mashishing 1120<br>STREET_ADR: 1 Main Street<br>TOWN: Ohrigstad<br>MUNICIPALI: Greater Tubatse Local Municipality<br>DISTRICT: Sekhukhune<br>GPS_EAST: 30.55849<br>GPS_SOUTH: -24.75323","PROVINCE":"LP","MagisterialDistrict":"Tubatse [Burgersfort]","PreviouslyKnownAs":"","AlsoKnownAs":"","SMALLCLAIM":"No","EQUALITY_C":"No","Tel":"013 235 2325/6/7","Fax":"013 235 3411","Postal":"Private Bag X1085, Mashishing 1120","STREET_ADR":"1 Main Street","TOWN":"Ohrigstad","MUNICIPALI":"Greater Tubatse Local Municipality","DISTRICT":"Sekhukhune","GPS_EAST":"30.55849","GPS_SOUTH":"-24.75323"}},
{"type":"Feature","geometry":{"type":"Point","coordinates":[31.13567,-23.95197,0]},"properties":{"name":"Phalaborwa Magistrate Court","description":"PROVINCE: LP<br>MagisterialDistrict: Ba-Phalaborwa [Phalaborwa]<br>PreviouslyKnownAs: <br>AlsoKnownAs: <br>SMALLCLAIM: Yes<br>EQUALITY_C: Yes<br>Tel: 015 781 2731<br>Fax: 015 781 1819<br>Postal: Private Bag X01016, Phalaborwa 1390<br>STREET_ADR: Cnr Sealene Street & Palm<br>TOWN: Phalaborwa<br>MUNICIPALI: Ba-Phalaborwa Local Municipality<br>DISTRICT: Mopani<br>GPS_EAST: 31.13567<br>GPS_SOUTH: -23.95197","PROVINCE":"LP","MagisterialDistrict":"Ba-Phalaborwa [Phalaborwa]","PreviouslyKnownAs":"","AlsoKnownAs":"","SMALLCLAIM":"Yes","EQUALITY_C":"Yes","Tel":"015 781 2731","Fax":"015 781 1819","Postal":"Private Bag X01016, Phalaborwa 1390","STREET_ADR":"Cnr Sealene Street & Palm","TOWN":"Phalaborwa","MUNICIPALI":"Ba-Phalaborwa Local Municipality","DISTRICT":"Mopani","GPS_EAST":"31.13567","GPS_SOUTH":"-23.95197"}},
{"type":"Feature","geometry":{"type":"Point","coordinates":[28.29626,-25.20261,0]},"properties":{"name":"Pienaars River Periodical Court","description":"PROVINCE: LP<br>MagisterialDistrict: Bela-Bela [Bela-Bela]<br>PreviouslyKnownAs: <br>AlsoKnownAs: <br>SMALLCLAIM: No<br>EQUALITY_C: No<br>Tel: 014 736 2231<br>Fax: 014 736 5210/0865075648<br>Postal: Private Bag X1617, Bela-Bela 0480<br>STREET_ADR: R101 Warmbad,<br>TOWN: Pienaars River<br>MUNICIPALI: Bela-Bela Local Municipality<br>DISTRICT: Waterberg<br>GPS_EAST: 28.29626<br>GPS_SOUTH: -25.20261","PROVINCE":"LP","MagisterialDistrict":"Bela-Bela [Bela-Bela]","PreviouslyKnownAs":"","AlsoKnownAs":"","SMALLCLAIM":"No","EQUALITY_C":"No","Tel":"014 736 2231","Fax":"014 736 5210/0865075648","Postal":"Private Bag X1617, Bela-Bela 0480","STREET_ADR":"R101 Warmbad,","TOWN":"Pienaars River","MUNICIPALI":"Bela-Bela Local Municipality","DISTRICT":"Waterberg","GPS_EAST":"28.29626","GPS_SOUTH":"-25.20261"}},
{"type":"Feature","geometry":{"type":"Point","coordinates":[29.4541,-23.91451,0]},"properties":{"name":"Polokwane Magistrate Court","description":"PROVINCE: LP<br>MagisterialDistrict: Polokwane [Polokwane]<br>PreviouslyKnownAs: Pietersburg<br>AlsoKnownAs: <br>SMALLCLAIM: Yes<br>EQUALITY_C: Yes<br>Tel: 015 294 6000<br>Fax: 015 294 6074<br>Postal: Private Bag X9320, Polokwane 0700<br>STREET_ADR: 19 Bodenstein Street<br>TOWN: Polokwane<br>MUNICIPALI: Polokwane Local Municipality<br>DISTRICT: Capricorn<br>GPS_EAST: 29.4541<br>GPS_SOUTH: -23.91451","PROVINCE":"LP","MagisterialDistrict":"Polokwane [Polokwane]","PreviouslyKnownAs":"Pietersburg","AlsoKnownAs":"","SMALLCLAIM":"Yes","EQUALITY_C":"Yes","Tel":"015 294 6000","Fax":"015 294 6074","Postal":"Private Bag X9320, Polokwane 0700","STREET_ADR":"19 Bodenstein Street","TOWN":"Polokwane","MUNICIPALI":"Polokwane Local Municipality","DISTRICT":"Capricorn","GPS_EAST":"29.4541","GPS_SOUTH":"-23.91451"}},
{"type":"Feature","geometry":{"type":"Point","coordinates":[30.32332,-24.58074,0]},"properties":{"name":"Praktiseer Magistrate Court","description":"PROVINCE: LP<br>MagisterialDistrict: Tubatse [Burgersfort]<br>PreviouslyKnownAs: <br>AlsoKnownAs: Ga-Marotha<br>SMALLCLAIM: Yes<br>EQUALITY_C: Yes<br>Tel: 013 216 1091<br>Fax: 013 216 1730<br>Postal: Private Bag X1013, Burgersfort 1150<br>STREET_ADR: Police Station Street<br>TOWN: Praktiseer<br>MUNICIPALI: Greater Tubatse Local Municipality<br>DISTRICT: Sekhukhune<br>GPS_EAST: 30.32332<br>GPS_SOUTH: -24.58074","PROVINCE":"LP","MagisterialDistrict":"Tubatse [Burgersfort]","PreviouslyKnownAs":"","AlsoKnownAs":"Ga-Marotha","SMALLCLAIM":"Yes","EQUALITY_C":"Yes","Tel":"013 216 1091","Fax":"013 216 1730","Postal":"Private Bag X1013, Burgersfort 1150","STREET_ADR":"Police Station Street","TOWN":"Praktiseer","MUNICIPALI":"Greater Tubatse Local Municipality","DISTRICT":"Sekhukhune","GPS_EAST":"30.32332","GPS_SOUTH":"-24.58074"}},
{"type":"Feature","geometry":{"type":"Point","coordinates":[29.80511,-23.47225,0]},"properties":{"name":"Ramokgopa Periodical Court","description":"PROVINCE: LP<br>MagisterialDistrict: Molemole [Morebeng]<br>PreviouslyKnownAs: <br>AlsoKnownAs: <br>SMALLCLAIM: No<br>EQUALITY_C: No<br>Tel: See Morebeng<br>Fax: See Morebeng<br>Postal: See Morebeng<br>STREET_ADR: Ramokgop Village<br>TOWN: Ramokgopa<br>MUNICIPALI: Molemole Local Municipality<br>DISTRICT: Capricon<br>GPS_EAST: 29.80511<br>GPS_SOUTH: -23.47225","PROVINCE":"LP","MagisterialDistrict":"Molemole [Morebeng]","PreviouslyKnownAs":"","AlsoKnownAs":"","SMALLCLAIM":"No","EQUALITY_C":"No","Tel":"See Morebeng","Fax":"See Morebeng","Postal":"See Morebeng","STREET_ADR":"Ramokgop Village","TOWN":"Ramokgopa","MUNICIPALI":"Molemole Local Municipality","DISTRICT":"Capricon","GPS_EAST":"29.80511","GPS_SOUTH":"-23.47225"}},
{"type":"Feature","geometry":{"type":"Point","coordinates":[27.9138,-24.52891,0]},"properties":{"name":"Rankin's Pass Periodical Court","description":"PROVINCE: LP<br>MagisterialDistrict: Modimolle [Modimolle]<br>PreviouslyKnownAs: <br>AlsoKnownAs: <br>SMALLCLAIM: No<br>EQUALITY_C: No<br>Tel: 014 717 5316<br>Fax: 014 717 5369<br>Postal: Private Bag X1011, Modimolle 0510<br>STREET_ADR: Near Rankin's Pass SAPS<br>TOWN: Rankin's Pass<br>MUNICIPALI: Modimolle/Mookgophong Local Municipality<br>DISTRICT: Waterberg<br>GPS_EAST: 27.9138<br>GPS_SOUTH: -24.52891","PROVINCE":"LP","MagisterialDistrict":"Modimolle [Modimolle]","PreviouslyKnownAs":"","AlsoKnownAs":"","SMALLCLAIM":"No","EQUALITY_C":"No","Tel":"014 717 5316","Fax":"014 717 5369","Postal":"Private Bag X1011, Modimolle 0510","STREET_ADR":"Near Rankin's Pass SAPS","TOWN":"Rankin's Pass","MUNICIPALI":"Modimolle/Mookgophong Local Municipality","DISTRICT":"Waterberg","GPS_EAST":"27.9138","GPS_SOUTH":"-24.52891"}},
{"type":"Feature","geometry":{"type":"Point","coordinates":[29.08159,-24.59619,0]},"properties":{"name":"Roedtan Periodical Court","description":"PROVINCE: LP<br>MagisterialDistrict: Mookgopong [Mookgopong]<br>PreviouslyKnownAs: <br>AlsoKnownAs: <br>SMALLCLAIM: No<br>EQUALITY_C: No<br>Tel: 014 743 2217/8<br>Fax: 014 743 0367<br>Postal: Private Bag X308, Mookgophong 0560<br>STREET_ADR: SAPS Roedtan, Main Street<br>TOWN: Roedtan<br>MUNICIPALI: Modimolle/Mookgophong Local Municipality<br>DISTRICT: Waterberg<br>GPS_EAST: 29.08159<br>GPS_SOUTH: -24.59619","PROVINCE":"LP","MagisterialDistrict":"Mookgopong [Mookgopong]","PreviouslyKnownAs":"","AlsoKnownAs":"","SMALLCLAIM":"No","EQUALITY_C":"No","Tel":"014 743 2217/8","Fax":"014 743 0367","Postal":"Private Bag X308, Mookgophong 0560","STREET_ADR":"SAPS Roedtan, Main Street","TOWN":"Roedtan","MUNICIPALI":"Modimolle/Mookgophong Local Municipality","DISTRICT":"Waterberg","GPS_EAST":"29.08159","GPS_SOUTH":"-24.59619"}},
{"type":"Feature","geometry":{"type":"Point","coordinates":[27.73082,-24.77884,0]},"properties":{"name":"Rooiberg Periodical Court","description":"PROVINCE: LP<br>MagisterialDistrict: Thabazimbi [Thabazimbi]<br>PreviouslyKnownAs: <br>AlsoKnownAs: <br>SMALLCLAIM: No<br>EQUALITY_C: No<br>Tel: 014 736 2231<br>Fax: 014 736 5210/0865075648<br>Postal: Private Bag X1617, Bela-Bela 0480<br>STREET_ADR: 43 Maroela Street,<br>TOWN: Rooiberg<br>MUNICIPALI: Thabazimbi Local Muicipality<br>DISTRICT: Waterberg<br>GPS_EAST: 27.73082<br>GPS_SOUTH: -24.77884","PROVINCE":"LP","MagisterialDistrict":"Thabazimbi [Thabazimbi]","PreviouslyKnownAs":"","AlsoKnownAs":"","SMALLCLAIM":"No","EQUALITY_C":"No","Tel":"014 736 2231","Fax":"014 736 5210/0865075648","Postal":"Private Bag X1617, Bela-Bela 0480","STREET_ADR":"43 Maroela Street,","TOWN":"Rooiberg","MUNICIPALI":"Thabazimbi Local Muicipality","DISTRICT":"Waterberg","GPS_EAST":"27.73082","GPS_SOUTH":"-24.77884"}},
{"type":"Feature","geometry":{"type":"Point","coordinates":[29.92623,-25.20155,0]},"properties":{"name":"Roossenekal Periodical Court","description":"PROVINCE: LP<br>MagisterialDistrict: Elias Motsoaledi [Groblersdal]<br>PreviouslyKnownAs: <br>AlsoKnownAs: <br>SMALLCLAIM: No<br>EQUALITY_C: No<br>Tel: 013 262 2033/34<br>Fax: 013 262 3000<br>Postal: Private Bag X617, Groblersdal 0470<br>STREET_ADR: 010 Senekal Street<br>TOWN: Roossenekal<br>MUNICIPALI: Elias Motsoaledi Local Municipality<br>DISTRICT: Sekhukhune<br>GPS_EAST: 29.92623<br>GPS_SOUTH: -25.20155","PROVINCE":"LP","MagisterialDistrict":"Elias Motsoaledi [Groblersdal]","PreviouslyKnownAs":"","AlsoKnownAs":"","SMALLCLAIM":"No","EQUALITY_C":"No","Tel":"013 262 2033/34","Fax":"013 262 3000","Postal":"Private Bag X617, Groblersdal 0470","STREET_ADR":"010 Senekal Street","TOWN":"Roossenekal","MUNICIPALI":"Elias Motsoaledi Local Municipality","DISTRICT":"Sekhukhune","GPS_EAST":"29.92623","GPS_SOUTH":"-25.20155"}},
{"type":"Feature","geometry":{"type":"Point","coordinates":[28.60789,-25.20318,0]},"properties":{"name":"Rust de Winter Branch Court","description":"PROVINCE: LP<br>MagisterialDistrict: Bela-Bela [Bela-Bela]<br>PreviouslyKnownAs: <br>AlsoKnownAs: <br>SMALLCLAIM: No<br>EQUALITY_C: No<br>Tel: 014 736 2231<br>Fax: 014 736 5210/0865075648<br>Postal: Private Bag X1617, Bela-Bela 0480<br>STREET_ADR: Perseel 180JR<br>TOWN: Rust de Winter<br>MUNICIPALI: Bela-Bela Local Municipality<br>DISTRICT: Waterberg<br>GPS_EAST: 28.60789<br>GPS_SOUTH: -25.20318","PROVINCE":"LP","MagisterialDistrict":"Bela-Bela [Bela-Bela]","PreviouslyKnownAs":"","AlsoKnownAs":"","SMALLCLAIM":"No","EQUALITY_C":"No","Tel":"014 736 2231","Fax":"014 736 5210/0865075648","Postal":"Private Bag X1617, Bela-Bela 0480","STREET_ADR":"Perseel 180JR","TOWN":"Rust de Winter","MUNICIPALI":"Bela-Bela Local Municipality","DISTRICT":"Waterberg","GPS_EAST":"28.60789","GPS_SOUTH":"-25.20318"}},
{"type":"Feature","geometry":{"type":"Point","coordinates":[30.85721,-22.83127,0]},"properties":{"name":"Saselamani Branch Court","description":"PROVINCE: LP<br>MagisterialDistrict: Malamulele [Malamulele]<br>PreviouslyKnownAs: <br>AlsoKnownAs: <br>SMALLCLAIM: Yes (Sessions Only)<br>EQUALITY_C: No<br>Tel: 015 851 0022/3/4<br>Fax: 015 851 1357<br>Postal: Private Bag X9180, Malamulele 0982<br>STREET_ADR: Near SAPS Sasalamani<br>TOWN: Sasalamani<br>MUNICIPALI: New Municipal to be proclaimed<br>DISTRICT: Vhembe<br>GPS_EAST: 30.85721<br>GPS_SOUTH: -22.83127","PROVINCE":"LP","MagisterialDistrict":"Malamulele [Malamulele]","PreviouslyKnownAs":"","AlsoKnownAs":"","SMALLCLAIM":"Yes (Sessions Only)","EQUALITY_C":"No","Tel":"015 851 0022/3/4","Fax":"015 851 1357","Postal":"Private Bag X9180, Malamulele 0982","STREET_ADR":"Near SAPS Sasalamani","TOWN":"Sasalamani","MUNICIPALI":"New Municipal to be proclaimed","DISTRICT":"Vhembe","GPS_EAST":"30.85721","GPS_SOUTH":"-22.83127"}},
{"type":"Feature","geometry":{"type":"Point","coordinates":[30.01526,-24.75125,0]},"properties":{"name":"Schoonoord Magistrate Court","description":"PROVINCE: LP<br>MagisterialDistrict: Makhuduthamaga [Sekhukhune]<br>PreviouslyKnownAs: Sekhukhune<br>AlsoKnownAs: <br>SMALLCLAIM: Yes<br>EQUALITY_C: Yes<br>Tel: 013 260 1001/02<br>Fax: 013 260 1049<br>Postal: Private Bag X9207, Sekhukhune 1124<br>STREET_ADR: Next to Police Station<br>TOWN: Sekhukhune<br>MUNICIPALI: Makhuduthamaga Local Municipality<br>DISTRICT: Sekhukhune<br>GPS_EAST: 30.01526<br>GPS_SOUTH: -24.75125","PROVINCE":"LP","MagisterialDistrict":"Makhuduthamaga [Sekhukhune]","PreviouslyKnownAs":"Sekhukhune","AlsoKnownAs":"","SMALLCLAIM":"Yes","EQUALITY_C":"Yes","Tel":"013 260 1001/02","Fax":"013 260 1049","Postal":"Private Bag X9207, Sekhukhune 1124","STREET_ADR":"Next to Police Station","TOWN":"Sekhukhune","MUNICIPALI":"Makhuduthamaga Local Municipality","DISTRICT":"Sekhukhune","GPS_EAST":"30.01526","GPS_SOUTH":"-24.75125"}},
{"type":"Feature","geometry":{"type":"Point","coordinates":[29.21582,-25.28637,0]},"properties":{"name":"Sempupuru Magistrate Court","description":"PROVINCE: LP<br>MagisterialDistrict: Elias Motsoaledi [Moutse]<br>PreviouslyKnownAs: Moutse<br>AlsoKnownAs: Elandsdoorn<br>SMALLCLAIM: Yes<br>EQUALITY_C: Yes<br>Tel: 013 980 0061<br>Fax: 013 980 0484<br>Postal: Private Bag X4565, Dennilton 1030<br>STREET_ADR: 1 Court Street,<br>TOWN: Elandsdoorn, Dennilton<br>MUNICIPALI: Elias Motsoaledi Local Municipality<br>DISTRICT: Sekhukhune<br>GPS_EAST: 29.21582<br>GPS_SOUTH: -25.28637","PROVINCE":"LP","MagisterialDistrict":"Elias Motsoaledi [Moutse]","PreviouslyKnownAs":"Moutse","AlsoKnownAs":"Elandsdoorn","SMALLCLAIM":"Yes","EQUALITY_C":"Yes","Tel":"013 980 0061","Fax":"013 980 0484","Postal":"Private Bag X4565, Dennilton 1030","STREET_ADR":"1 Court Street,","TOWN":"Elandsdoorn, Dennilton","MUNICIPALI":"Elias Motsoaledi Local Municipality","DISTRICT":"Sekhukhune","GPS_EAST":"29.21582","GPS_SOUTH":"-25.28637"}},
{"type":"Feature","geometry":{"type":"Point","coordinates":[29.14064,-23.28766,0]},"properties":{"name":"Senwabarwana Magistrate Court","description":"PROVINCE: LP<br>MagisterialDistrict: Blouberg [Blouberg]<br>PreviouslyKnownAs: Bochum<br>AlsoKnownAs: <br>SMALLCLAIM: Yes<br>EQUALITY_C: Yes<br>Tel: 015 505 3151/ 52<br>Fax: 015 505 3153<br>Postal: Private Bag X5001, Bochum 0790<br>STREET_ADR: Main Road, Next to Bochum Plaza<br>TOWN: Senwabarwana<br>MUNICIPALI: Blouberg Local Municipality<br>DISTRICT: Capricorn<br>GPS_EAST: 29.14064<br>GPS_SOUTH: -23.28766","PROVINCE":"LP","MagisterialDistrict":"Blouberg [Blouberg]","PreviouslyKnownAs":"Bochum","AlsoKnownAs":"","SMALLCLAIM":"Yes","EQUALITY_C":"Yes","Tel":"015 505 3151/ 52","Fax":"015 505 3153","Postal":"Private Bag X5001, Bochum 0790","STREET_ADR":"Main Road, Next to Bochum Plaza","TOWN":"Senwabarwana","MUNICIPALI":"Blouberg Local Municipality","DISTRICT":"Capricorn","GPS_EAST":"29.14064","GPS_SOUTH":"-23.28766"}},
{"type":"Feature","geometry":{"type":"Point","coordinates":[30.15034,-23.41238,0]},"properties":{"name":"Senwamokgope Periodical Court","description":"PROVINCE: LP<br>MagisterialDistrict: Malamulele [Tiyani]<br>PreviouslyKnownAs: <br>AlsoKnownAs: <br>SMALLCLAIM: No<br>EQUALITY_C: No<br>Tel: See Morebeng<br>Fax: See Morebeng<br>Postal: See Morebeng<br>STREET_ADR: Opposite Gretater Letaba Municipal Offices<br>TOWN: Senwamokgope<br>MUNICIPALI: Greater Letaba Local Municipality<br>DISTRICT: Mopani<br>GPS_EAST: 30.15034<br>GPS_SOUTH: -23.41238","PROVINCE":"LP","MagisterialDistrict":"Malamulele [Tiyani]","PreviouslyKnownAs":"","AlsoKnownAs":"","SMALLCLAIM":"No","EQUALITY_C":"No","Tel":"See Morebeng","Fax":"See Morebeng","Postal":"See Morebeng","STREET_ADR":"Opposite Gretater Letaba Municipal Offices","TOWN":"Senwamokgope","MUNICIPALI":"Greater Letaba Local Municipality","DISTRICT":"Mopani","GPS_EAST":"30.15034","GPS_SOUTH":"-23.41238"}},
{"type":"Feature","geometry":{"type":"Point","coordinates":[29.38157,-23.85451,0]},"properties":{"name":"Seshego Magistrate Court","description":"PROVINCE: LP<br>MagisterialDistrict: Polokwane [Seshego]<br>PreviouslyKnownAs: <br>AlsoKnownAs: <br>SMALLCLAIM: Yes<br>EQUALITY_C: Yes<br>Tel: 015 223 5112<br>Fax: 015 223 5101<br>Postal: Private Bag X4007, Seshego 0742<br>STREET_ADR: 4003 Nelson Mandela Drive, Zone 7<br>TOWN: Seshego<br>MUNICIPALI: Polokwane Local Municipality<br>DISTRICT: Capricon<br>GPS_EAST: 29.38157<br>GPS_SOUTH: -23.85451","PROVINCE":"LP","MagisterialDistrict":"Polokwane [Seshego]","PreviouslyKnownAs":"","AlsoKnownAs":"","SMALLCLAIM":"Yes","EQUALITY_C":"Yes","Tel":"015 223 5112","Fax":"015 223 5101","Postal":"Private Bag X4007, Seshego 0742","STREET_ADR":"4003 Nelson Mandela Drive, Zone 7","TOWN":"Seshego","MUNICIPALI":"Polokwane Local Municipality","DISTRICT":"Capricon","GPS_EAST":"29.38157","GPS_SOUTH":"-23.85451"}},
{"type":"Feature","geometry":{"type":"Point","coordinates":[27.40734,-24.59707,0]},"properties":{"name":"Thabazimbi Magistrate Court","description":"PROVINCE: LP<br>MagisterialDistrict: Thabazimbi [Thabazimbi]<br>PreviouslyKnownAs: <br>AlsoKnownAs: <br>SMALLCLAIM: Yes<br>EQUALITY_C: Yes<br>Tel: 014 777 1543<br>Fax: 014 772  2523<br>Postal: Private Bag X535, Thabazimbi 0380<br>STREET_ADR: 64 Loubos Weg,<br>TOWN: Thabazimbi<br>MUNICIPALI: Thabazimbi Local MunicipalityÂ â€ƒ<br>DISTRICT: Waterberg<br>GPS_EAST: 27.40734<br>GPS_SOUTH: -24.59707","PROVINCE":"LP","MagisterialDistrict":"Thabazimbi [Thabazimbi]","PreviouslyKnownAs":"","AlsoKnownAs":"","SMALLCLAIM":"Yes","EQUALITY_C":"Yes","Tel":"014 777 1543","Fax":"014 772  2523","Postal":"Private Bag X535, Thabazimbi 0380","STREET_ADR":"64 Loubos Weg,","TOWN":"Thabazimbi","MUNICIPALI":"Thabazimbi Local MunicipalityÂ â€ƒ","DISTRICT":"Waterberg","GPS_EAST":"27.40734","GPS_SOUTH":"-24.59707"}},
{"type":"Feature","geometry":{"type":"Point","coordinates":[30.45694,-22.97281,0]},"properties":{"name":"Thohoyandou Magistrate Court","description":"PROVINCE: LP<br>MagisterialDistrict: Thulamela [Thohoyandou]<br>PreviouslyKnownAs: <br>AlsoKnownAs: <br>SMALLCLAIM: Yes<br>EQUALITY_C: Yes<br>Tel: 015 962 5550<br>Fax: 015 962 5566<br>Postal: Private Bag X5005, Thohoyandou 0950<br>STREET_ADR: Mphephu Drive,<br>TOWN: Thohoyandou<br>MUNICIPALI: Thulamela Local Municipality<br>DISTRICT: Vhembe<br>GPS_EAST: 30.45694<br>GPS_SOUTH: -22.97281","PROVINCE":"LP","MagisterialDistrict":"Thulamela [Thohoyandou]","PreviouslyKnownAs":"","AlsoKnownAs":"","SMALLCLAIM":"Yes","EQUALITY_C":"Yes","Tel":"015 962 5550","Fax":"015 962 5566","Postal":"Private Bag X5005, Thohoyandou 0950","STREET_ADR":"Mphephu Drive,","TOWN":"Thohoyandou","MUNICIPALI":"Thulamela Local Municipality","DISTRICT":"Vhembe","GPS_EAST":"30.45694","GPS_SOUTH":"-22.97281"}},
{"type":"Feature","geometry":{"type":"Point","coordinates":[28.77492,-24.03652,0]},"properties":{"name":"Tin Mines Periodical Court","description":"PROVINCE: LP<br>MagisterialDistrict: Mogalakwena [Mahwelereng]<br>PreviouslyKnownAs: <br>AlsoKnownAs: Groenfontein<br>SMALLCLAIM: No<br>EQUALITY_C: No<br>Tel: 015 491 2158<br>Fax: 015 491 8111<br>Postal: Private Bag X2499, Mokopane 0600<br>STREET_ADR: 518 Marken Road,<br>TOWN: Tin Mines<br>MUNICIPALI: Mogalakwena Local Municipality<br>DISTRICT: Waterberg<br>GPS_EAST: 28.77492<br>GPS_SOUTH: -24.03652","PROVINCE":"LP","MagisterialDistrict":"Mogalakwena [Mahwelereng]","PreviouslyKnownAs":"","AlsoKnownAs":"Groenfontein","SMALLCLAIM":"No","EQUALITY_C":"No","Tel":"015 491 2158","Fax":"015 491 8111","Postal":"Private Bag X2499, Mokopane 0600","STREET_ADR":"518 Marken Road,","TOWN":"Tin Mines","MUNICIPALI":"Mogalakwena Local Municipality","DISTRICT":"Waterberg","GPS_EAST":"28.77492","GPS_SOUTH":"-24.03652"}},
{"type":"Feature","geometry":{"type":"Point","coordinates":[30.29706,-23.30612,0]},"properties":{"name":"Tiyani Branch Court","description":"PROVINCE: LP<br>MagisterialDistrict: Malamulele [Tiyani]<br>PreviouslyKnownAs: <br>AlsoKnownAs: <br>SMALLCLAIM: Yes<br>EQUALITY_C: Yes<br>Tel: 015 873 2797<br>Fax: 015 873 2753<br>Postal: Private Bag X5008, Vongani 0930<br>STREET_ADR: Main Road, Next to Police Station and Post Office<br>TOWN: Tiyani<br>MUNICIPALI: Makhado Local Municipality<br>DISTRICT: Vhembe<br>GPS_EAST: 30.29706<br>GPS_SOUTH: -23.30612","PROVINCE":"LP","MagisterialDistrict":"Malamulele [Tiyani]","PreviouslyKnownAs":"","AlsoKnownAs":"","SMALLCLAIM":"Yes","EQUALITY_C":"Yes","Tel":"015 873 2797","Fax":"015 873 2753","Postal":"Private Bag X5008, Vongani 0930","STREET_ADR":"Main Road, Next to Police Station and Post Office","TOWN":"Tiyani","MUNICIPALI":"Makhado Local Municipality","DISTRICT":"Vhembe","GPS_EAST":"30.29706","GPS_SOUTH":"-23.30612"}},
{"type":"Feature","geometry":{"type":"Point","coordinates":[28.57501,-22.98589,0]},"properties":{"name":"Tolwe Periodical Court","description":"PROVINCE: LP<br>MagisterialDistrict: Blouberg [Blouberg]<br>PreviouslyKnownAs: <br>AlsoKnownAs: <br>SMALLCLAIM: No<br>EQUALITY_C: No<br>Tel: 015 491 2158<br>Fax: 015 491 8111<br>Postal: Private Bag X2499, Mokopane 0600<br>STREET_ADR: Rooihogte Farm Next To Hunters Lodge<br>TOWN: Tolwe<br>MUNICIPALI: Blouberg Local Municipality<br>DISTRICT: Capricon<br>GPS_EAST: 28.57501<br>GPS_SOUTH: -22.98589","PROVINCE":"LP","MagisterialDistrict":"Blouberg [Blouberg]","PreviouslyKnownAs":"","AlsoKnownAs":"","SMALLCLAIM":"No","EQUALITY_C":"No","Tel":"015 491 2158","Fax":"015 491 8111","Postal":"Private Bag X2499, Mokopane 0600","STREET_ADR":"Rooihogte Farm Next To Hunters Lodge","TOWN":"Tolwe","MUNICIPALI":"Blouberg Local Municipality","DISTRICT":"Capricon","GPS_EAST":"28.57501","GPS_SOUTH":"-22.98589"}},
{"type":"Feature","geometry":{"type":"Point","coordinates":[27.9986,-23.06948,0]},"properties":{"name":"Tom Burke Periodical Court","description":"PROVINCE: LP<br>MagisterialDistrict: Lephalale [Phalala]<br>PreviouslyKnownAs: <br>AlsoKnownAs: <br>SMALLCLAIM: No<br>EQUALITY_C: No<br>Tel: 014 769 0063/ 0165/ 0167<br>Fax: 014 769 0165 Tel/Fax<br>Postal: Private Bag X220, Lephalale 0555<br>STREET_ADR: SAPS Tomburke, R572 Road, Van Wyk Farm<br>TOWN: Tomburke<br>MUNICIPALI: Lephalale Local Municipality<br>DISTRICT: Waterberg<br>GPS_EAST: 27.9986<br>GPS_SOUTH: -23.06948","PROVINCE":"LP","MagisterialDistrict":"Lephalale [Phalala]","PreviouslyKnownAs":"","AlsoKnownAs":"","SMALLCLAIM":"No","EQUALITY_C":"No","Tel":"014 769 0063/ 0165/ 0167","Fax":"014 769 0165 Tel/Fax","Postal":"Private Bag X220, Lephalale 0555","STREET_ADR":"SAPS Tomburke, R572 Road, Van Wyk Farm","TOWN":"Tomburke","MUNICIPALI":"Lephalale Local Municipality","DISTRICT":"Waterberg","GPS_EAST":"27.9986","GPS_SOUTH":"-23.06948"}},
{"type":"Feature","geometry":{"type":"Point","coordinates":[30.74825,-22.80376,0]},"properties":{"name":"Tshaulu Periodical Court","description":"PROVINCE: LP<br>MagisterialDistrict: Thulamela [Thohoyandou]<br>PreviouslyKnownAs: <br>AlsoKnownAs: <br>SMALLCLAIM: No<br>EQUALITY_C: No<br>Tel: 015 962 5550<br>Fax: 015 962 5566<br>Postal: Private Bag X5005, Thohoyandou 0950<br>STREET_ADR: SAPS Tshaulu,<br>TOWN: Tshaulu<br>MUNICIPALI: Thulamela Local Municipality<br>DISTRICT: Vhembe<br>GPS_EAST: 30.74825<br>GPS_SOUTH: -22.80376","PROVINCE":"LP","MagisterialDistrict":"Thulamela [Thohoyandou]","PreviouslyKnownAs":"","AlsoKnownAs":"","SMALLCLAIM":"No","EQUALITY_C":"No","Tel":"015 962 5550","Fax":"015 962 5566","Postal":"Private Bag X5005, Thohoyandou 0950","STREET_ADR":"SAPS Tshaulu,","TOWN":"Tshaulu","MUNICIPALI":"Thulamela Local Municipality","DISTRICT":"Vhembe","GPS_EAST":"30.74825","GPS_SOUTH":"-22.80376"}},
{"type":"Feature","geometry":{"type":"Point","coordinates":[30.21735,-22.91142,0]},"properties":{"name":"Tshikombani Periodical Court","description":"PROVINCE: LP<br>MagisterialDistrict: Thulamela [Thohoyandou]<br>PreviouslyKnownAs: <br>AlsoKnownAs: <br>SMALLCLAIM: No<br>EQUALITY_C: No<br>Tel: 015  962 5556<br>Fax: 015 962 5566<br>Postal: Private Bag X5005, Thohoyandou 0950<br>STREET_ADR: Tribal Council<br>TOWN: Tsikombani<br>MUNICIPALI: Thulamela Local Municipality<br>DISTRICT: Vhembe<br>GPS_EAST: 30.21735<br>GPS_SOUTH: -22.91142","PROVINCE":"LP","MagisterialDistrict":"Thulamela [Thohoyandou]","PreviouslyKnownAs":"","AlsoKnownAs":"","SMALLCLAIM":"No","EQUALITY_C":"No","Tel":"015  962 5556","Fax":"015 962 5566","Postal":"Private Bag X5005, Thohoyandou 0950","STREET_ADR":"Tribal Council","TOWN":"Tsikombani","MUNICIPALI":"Thulamela Local Municipality","DISTRICT":"Vhembe","GPS_EAST":"30.21735","GPS_SOUTH":"-22.91142"}},
{"type":"Feature","geometry":{"type":"Point","coordinates":[29.74109,-23.09656,0]},"properties":{"name":"Tshilwavhusiku Magistrate Court","description":"PROVINCE: LP<br>MagisterialDistrict: Makhado [Tshilwavhusiku]<br>PreviouslyKnownAs: <br>AlsoKnownAs: <br>SMALLCLAIM: Yes<br>EQUALITY_C: Yes<br>Tel: 015 571 5277/ 5049/ 505 0563<br>Fax: 015 571 5490<br>Postal: Private Bag X701, Tshilwavhusiku 0938<br>STREET_ADR: Next to Police Station<br>TOWN: Tshilwavhusiku<br>MUNICIPALI: Makhado Local Municipality<br>DISTRICT: Vhembe<br>GPS_EAST: 29.74109<br>GPS_SOUTH: -23.09656","PROVINCE":"LP","MagisterialDistrict":"Makhado [Tshilwavhusiku]","PreviouslyKnownAs":"","AlsoKnownAs":"","SMALLCLAIM":"Yes","EQUALITY_C":"Yes","Tel":"015 571 5277/ 5049/ 505 0563","Fax":"015 571 5490","Postal":"Private Bag X701, Tshilwavhusiku 0938","STREET_ADR":"Next to Police Station","TOWN":"Tshilwavhusiku","MUNICIPALI":"Makhado Local Municipality","DISTRICT":"Vhembe","GPS_EAST":"29.74109","GPS_SOUTH":"-23.09656"}},
{"type":"Feature","geometry":{"type":"Point","coordinates":[29.98854,-23.35858,0]},"properties":{"name":"Tshitale Magistrate Court","description":"PROVINCE: LP<br>MagisterialDistrict: Makhado [Tshitale]<br>PreviouslyKnownAs: <br>AlsoKnownAs: <br>SMALLCLAIM: Yes<br>EQUALITY_C: Yes<br>Tel: 015 975 1715/17<br>Fax: 015 975 1716<br>Postal: Private Bag X3012, Mulima 0817<br>STREET_ADR: Mulima Sekgosese Road<br>TOWN: Tshitale<br>MUNICIPALI: Makhado Local Municipality<br>DISTRICT: Vhembe<br>GPS_EAST: 29.98854<br>GPS_SOUTH: -23.35858","PROVINCE":"LP","MagisterialDistrict":"Makhado [Tshitale]","PreviouslyKnownAs":"","AlsoKnownAs":"","SMALLCLAIM":"Yes","EQUALITY_C":"Yes","Tel":"015 975 1715/17","Fax":"015 975 1716","Postal":"Private Bag X3012, Mulima 0817","STREET_ADR":"Mulima Sekgosese Road","TOWN":"Tshitale","MUNICIPALI":"Makhado Local Municipality","DISTRICT":"Vhembe","GPS_EAST":"29.98854","GPS_SOUTH":"-23.35858"}},
{"type":"Feature","geometry":{"type":"Point","coordinates":[28.73624,-24.90221,0]},"properties":{"name":"Tuinplaas Periodical Court","description":"PROVINCE: LP<br>MagisterialDistrict: Modimolle [Modimolle]<br>PreviouslyKnownAs: <br>AlsoKnownAs: <br>SMALLCLAIM: No<br>EQUALITY_C: No<br>Tel: 014 717 5316<br>Fax: 014 717 5369<br>Postal: Private Bag X1011, Modimolle 0510<br>STREET_ADR: Near SAPS Tuinplaas<br>TOWN: Tuinplaas<br>MUNICIPALI: Modimolle/Mookgophong Local Municipality<br>DISTRICT: Waterberg<br>GPS_EAST: 28.73624<br>GPS_SOUTH: -24.90221","PROVINCE":"LP","MagisterialDistrict":"Modimolle [Modimolle]","PreviouslyKnownAs":"","AlsoKnownAs":"","SMALLCLAIM":"No","EQUALITY_C":"No","Tel":"014 717 5316","Fax":"014 717 5369","Postal":"Private Bag X1011, Modimolle 0510","STREET_ADR":"Near SAPS Tuinplaas","TOWN":"Tuinplaas","MUNICIPALI":"Modimolle/Mookgophong Local Municipality","DISTRICT":"Waterberg","GPS_EAST":"28.73624","GPS_SOUTH":"-24.90221"}},
{"type":"Feature","geometry":{"type":"Point","coordinates":[30.16075,-23.82821,0]},"properties":{"name":"Tzaneen Magistrate Court","description":"PROVINCE: LP<br>MagisterialDistrict: Tzaneen [Tzaneen] <br>PreviouslyKnownAs: <br>AlsoKnownAs: <br>SMALLCLAIM: Yes<br>EQUALITY_C: Yes<br>Tel: 015 307 3770 / 307 7061<br>Fax: 015 307 4163<br>Postal: Private Bag X4010, Tzaneen 0850<br>STREET_ADR: 18 Morgan Street<br>TOWN: Tzaneen<br>MUNICIPALI: Greater Tzaneen Local Municipality<br>DISTRICT: Mopani<br>GPS_EAST: 30.16075<br>GPS_SOUTH: -23.82821","PROVINCE":"LP","MagisterialDistrict":"Tzaneen [Tzaneen] ","PreviouslyKnownAs":"","AlsoKnownAs":"","SMALLCLAIM":"Yes","EQUALITY_C":"Yes","Tel":"015 307 3770 / 307 7061","Fax":"015 307 4163","Postal":"Private Bag X4010, Tzaneen 0850","STREET_ADR":"18 Morgan Street","TOWN":"Tzaneen","MUNICIPALI":"Greater Tzaneen Local Municipality","DISTRICT":"Mopani","GPS_EAST":"30.16075","GPS_SOUTH":"-23.82821"}},
{"type":"Feature","geometry":{"type":"Point","coordinates":[28.11393,-24.29323,0]},"properties":{"name":"Vaalwater Periodical Court","description":"PROVINCE: LP<br>MagisterialDistrict: Modimolle [Modimolle]<br>PreviouslyKnownAs: <br>AlsoKnownAs: <br>SMALLCLAIM: No<br>EQUALITY_C: No<br>Tel: 014 717 5316<br>Fax: 014 717 5369<br>Postal: Private Bag X1011, Modimolle 0510<br>STREET_ADR: Near SAPS Vaalwater<br>TOWN: Vaalwater<br>MUNICIPALI: Modimolle/Mookgophong Local Municipality<br>DISTRICT: Waterberg<br>GPS_EAST: 28.11393<br>GPS_SOUTH: -24.29323","PROVINCE":"LP","MagisterialDistrict":"Modimolle [Modimolle]","PreviouslyKnownAs":"","AlsoKnownAs":"","SMALLCLAIM":"No","EQUALITY_C":"No","Tel":"014 717 5316","Fax":"014 717 5369","Postal":"Private Bag X1011, Modimolle 0510","STREET_ADR":"Near SAPS Vaalwater","TOWN":"Vaalwater","MUNICIPALI":"Modimolle/Mookgophong Local Municipality","DISTRICT":"Waterberg","GPS_EAST":"28.11393","GPS_SOUTH":"-24.29323"}},
{"type":"Feature","geometry":{"type":"Point","coordinates":[28.1257,-23.52816,0]},"properties":{"name":"Villa Nora Periodical Court","description":"PROVINCE: LP<br>MagisterialDistrict: Lephalale [Phalala]<br>PreviouslyKnownAs: <br>AlsoKnownAs: <br>SMALLCLAIM: No<br>EQUALITY_C: No<br>Tel: 014 769 0063/ 0165/ 0167<br>Fax: 014 769 0165 Tel/Fax<br>Postal: Private Bag X220, Lephalale 0555<br>STREET_ADR: R518, Villa Nora<br>TOWN: Villa Nora<br>MUNICIPALI: Lephalale Local Municipality<br>DISTRICT: Waterberg<br>GPS_EAST: 28.1257<br>GPS_SOUTH: -23.52816","PROVINCE":"LP","MagisterialDistrict":"Lephalale [Phalala]","PreviouslyKnownAs":"","AlsoKnownAs":"","SMALLCLAIM":"No","EQUALITY_C":"No","Tel":"014 769 0063/ 0165/ 0167","Fax":"014 769 0165 Tel/Fax","Postal":"Private Bag X220, Lephalale 0555","STREET_ADR":"R518, Villa Nora","TOWN":"Villa Nora","MUNICIPALI":"Lephalale Local Municipality","DISTRICT":"Waterberg","GPS_EAST":"28.1257","GPS_SOUTH":"-23.52816"}},
{"type":"Feature","geometry":{"type":"Point","coordinates":[30.41998,-23.13014,0]},"properties":{"name":"Vuwani Magistrate Court","description":"PROVINCE: LP<br>MagisterialDistrict: Malamulele [Vuwani]<br>PreviouslyKnownAs: <br>AlsoKnownAs: Schuinshoogte<br>SMALLCLAIM: Yes<br>EQUALITY_C: Yes<br>Tel: 015 961 5402<br>Fax: 015 961 5389<br>Postal: Private Bag X1204, Vuwani 0952<br>STREET_ADR: Next to Vuwani SAPS<br>TOWN: Vuwani<br>MUNICIPALI: New Municipal to be proclaimed<br>DISTRICT: Vhembe<br>GPS_EAST: 30.41998<br>GPS_SOUTH: -23.13014","PROVINCE":"LP","MagisterialDistrict":"Malamulele [Vuwani]","PreviouslyKnownAs":"","AlsoKnownAs":"Schuinshoogte","SMALLCLAIM":"Yes","EQUALITY_C":"Yes","Tel":"015 961 5402","Fax":"015 961 5389","Postal":"Private Bag X1204, Vuwani 0952","STREET_ADR":"Next to Vuwani SAPS","TOWN":"Vuwani","MUNICIPALI":"New Municipal to be proclaimed","DISTRICT":"Vhembe","GPS_EAST":"30.41998","GPS_SOUTH":"-23.13014"}},
{"type":"Feature","geometry":{"type":"Point","coordinates":[29.62667,-22.90068,0]},"properties":{"name":"Waterpoort Periodical Court","description":"PROVINCE: LP<br>MagisterialDistrict: Makhado [Louis Trichardt]<br>PreviouslyKnownAs: <br>AlsoKnownAs: <br>SMALLCLAIM: No<br>EQUALITY_C: No<br>Tel: 015 516 0181/2/3<br>Fax: 015 516 0044<br>Postal: Private Bag X2403, Louis Trichardt 0920<br>STREET_ADR: R523, SAPS Waterpoort<br>TOWN: Waterpoort<br>MUNICIPALI: makhado Local Municipality<br>DISTRICT: Vhembe<br>GPS_EAST: 29.62667<br>GPS_SOUTH: -22.90068","PROVINCE":"LP","MagisterialDistrict":"Makhado [Louis Trichardt]","PreviouslyKnownAs":"","AlsoKnownAs":"","SMALLCLAIM":"No","EQUALITY_C":"No","Tel":"015 516 0181/2/3","Fax":"015 516 0044","Postal":"Private Bag X2403, Louis Trichardt 0920","STREET_ADR":"R523, SAPS Waterpoort","TOWN":"Waterpoort","MUNICIPALI":"makhado Local Municipality","DISTRICT":"Vhembe","GPS_EAST":"29.62667","GPS_SOUTH":"-22.90068"}},
{"type":"Feature","geometry":{"type":"Point","coordinates":[28.00542,-23.32973,0]},"properties":{"name":"Witpoort Magistrate Court","description":"PROVINCE: LP<br>MagisterialDistrict: Lephalale [Phalala]<br>PreviouslyKnownAs: Phalala<br>AlsoKnownAs: <br>SMALLCLAIM: Yes<br>EQUALITY_C: Yes<br>Tel: 014 769 0063/ 0165/ 0167<br>Fax: 014 769 0165 Tel/Fax<br>Postal: Private Bag X220, Lephalale 0555<br>STREET_ADR: Witpoort<br>TOWN: Phalala<br>MUNICIPALI: Lephalale Local Municipality<br>DISTRICT: Waterberg<br>GPS_EAST: 28.00542<br>GPS_SOUTH: -23.32973","PROVINCE":"LP","MagisterialDistrict":"Lephalale [Phalala]","PreviouslyKnownAs":"Phalala","AlsoKnownAs":"","SMALLCLAIM":"Yes","EQUALITY_C":"Yes","Tel":"014 769 0063/ 0165/ 0167","Fax":"014 769 0165 Tel/Fax","Postal":"Private Bag X220, Lephalale 0555","STREET_ADR":"Witpoort","TOWN":"Phalala","MUNICIPALI":"Lephalale Local Municipality","DISTRICT":"Waterberg","GPS_EAST":"28.00542","GPS_SOUTH":"-23.32973"}},
{"type":"Feature","geometry":{"type":"Point","coordinates":[29.75124,-25.16611,0]},"properties":{"name":"Zaaiplaas Branch Court","description":"PROVINCE: LP<br>MagisterialDistrict: Elias Motsoaledi [Groblersdal]<br>PreviouslyKnownAs: <br>AlsoKnownAs: <br>SMALLCLAIM: No<br>EQUALITY_C: No<br>Tel: 013 262 2033/34<br>Fax: 013 262 3000<br>Postal: Private Bag X617, Groblersdal 0470<br>STREET_ADR: New Stand, no: 63<br>TOWN: Zaaiplaas<br>MUNICIPALI: Elias Motsoaledi Local Municipality<br>DISTRICT: Sekhukhune<br>GPS_EAST: 29.75124<br>GPS_SOUTH: -25.16611","PROVINCE":"LP","MagisterialDistrict":"Elias Motsoaledi [Groblersdal]","PreviouslyKnownAs":"","AlsoKnownAs":"","SMALLCLAIM":"No","EQUALITY_C":"No","Tel":"013 262 2033/34","Fax":"013 262 3000","Postal":"Private Bag X617, Groblersdal 0470","STREET_ADR":"New Stand, no: 63","TOWN":"Zaaiplaas","MUNICIPALI":"Elias Motsoaledi Local Municipality","DISTRICT":"Sekhukhune","GPS_EAST":"29.75124","GPS_SOUTH":"-25.16611"}},
{"type":"Feature","geometry":{"type":"Point","coordinates":[29.24439,-24.29834,0]},"properties":{"name":"Zebediela Periodical Court","description":"PROVINCE: LP<br>MagisterialDistrict: Lepele-Nkumpi [Lebowakgomo]<br>PreviouslyKnownAs: <br>AlsoKnownAs: <br>SMALLCLAIM: Yes (Sessions Only)<br>EQUALITY_C: No<br>Tel: 015 491 2158<br>Fax: 015 491 8111<br>Postal: Private Bag X2499, Mokopane 0600<br>STREET_ADR: R518 Road,<br>TOWN: Groothoek<br>MUNICIPALI: Lepelle-Nkumpi Local Municipality<br>DISTRICT: Capricon<br>GPS_EAST: 29.24439<br>GPS_SOUTH: -24.29834","PROVINCE":"LP","MagisterialDistrict":"Lepele-Nkumpi [Lebowakgomo]","PreviouslyKnownAs":"","AlsoKnownAs":"","SMALLCLAIM":"Yes (Sessions Only)","EQUALITY_C":"No","Tel":"015 491 2158","Fax":"015 491 8111","Postal":"Private Bag X2499, Mokopane 0600","STREET_ADR":"R518 Road,","TOWN":"Groothoek","MUNICIPALI":"Lepelle-Nkumpi Local Municipality","DISTRICT":"Capricon","GPS_EAST":"29.24439","GPS_SOUTH":"-24.29834"}}
]}
